Shim_ID,FHFC_Key,HUD_REMS,Public_Housing_Development#,Florida_DOR_Parcel,Development_Name,Street_Address,City,State,Zip_Code,County,Housing_Program(s),Total_Units,Assisted_Units,HUD/RD_Rental_Assistance_Units,FHFC_Funded,HUD_Multifamily_Funded,HUD_Public_Housing_Funded,RD_Funded,LHFA_Funded,Target_Population,Occupancy_Status,Affordability_Start_Date,Year_built_(property_appraiser),Owner_Type,Overall_year_of_subsidy_expiration,Latitude,Longitude,Census_Tract,Census_Block_Group,Number_of_0_BR,Number_of_1_BR,Number_of_2_BR,Number_of_3_BR,Number_of_4_or_more_BR
1213,-,800003897,-,3926002000,ALACHUA APTS,13605 NW County Road 235,Alachua,Florida,32615,Alachua,Rental Assistance/HUD,70,70,70,-,x,-,-,-,Family,Ready for Occupancy,1979,1979,For-Profit,2016,29.77899933,-82.49800538,1806,3,-,18,36,16,-
1356,-,800004435,-,3926020000,SHERWOOD OAKS APARTMENTS,13400 NW 140th St,Alachua,Florida,32615,Alachua,Rental Assistance/HUD,54,54,54,-,x,-,-,-,Family,Ready for Occupancy,1981,1981,For-Profit,2036,29.77965874,-82.49592386,1806,3,-,8,30,16,-
1486,-,800003899,-,7905000000,"ALTERNATIVE HOUSING, INC.",1342 NW 45TH AVE,Gainesville,Florida,32605,Alachua,Rental Assistance/HUD;Section 202 Direct Loan,12,12,12,-,x,-,-,-,Persons with Disabilities,Ready for Occupancy,1987,1986,Non-Profit,2027,29.69631324,-82.34022987,1203,1,-,12,-,-,-
1264,-,800003978,-,16106130000,CARVER GARDENS,1101 SE 15TH ST,Gainesville,Florida,32641,Alachua,Rental Assistance/HUD,100,100,100,-,x,-,-,-,Family,Ready for Occupancy,1970,1970,Non-Profit,2034,29.64116508,-82.3043299,700,3,-,24,36,40,-
3100,1417,800004097,-,8197002006,FOREST GREEN APARTMENTS,3501 NE 15th St,Gainesville,Florida,32609,Alachua,Housing Credits 4%;Local Bonds;Rental Assistance/HUD,100,100,85,x,x,-,-,x,Family,Ready for Occupancy,1971,1972,Limited Dividend,2040,29.68405664,-82.30462071,400,1,-,20,35,35,10
1306,2563,800004110,-,10970000000,GARDENIA GARDENS APARTMENTS,1727 NE 8th Ave,Gainesville,Florida,32641,Alachua,Housing Credits 9%;Rental Assistance/HUD,100,100,99,x,x,-,-,-,Family;Link,Ready for Occupancy,1967,1968,For-Profit,2064,29.658222,-82.302167,600,2,not avail.,not avail.,not avail.,not avail.,not avail.
1073,-,800004144,-,6014016000,HAMPTON COURT,6415 NW 23RD TER,Gainesville,Florida,32653,Alachua,Rental Assistance/HUD,42,42,42,-,x,-,-,-,Family,Ready for Occupancy,1980,1980,Non-Profit,2035,29.71339626,-82.35988876,1803,3,-,16,22,4,-
2121,1083,800004175,-,9640001000,HORIZON HOUSE APARTMENTS,1515 NW 10TH ST,Gainesville,Florida,32601,Alachua,Rental Assistance/HUD;SAIL,40,40,28,x,x,-,-,-,Family,Ready for Occupancy,1971,1971,Non-Profit,2053,29.666557,-82.334011,301,2,-,-,24,16,-
2150,-,800004178,-,8260000000,Housing for the Handicapped Alachua Co I- 6th St.,3781 NW 6TH ST,Gainesville,Florida,32609,Alachua,Rental Assistance/HUD;Section 202 Direct Loan,13,12,12,-,x,-,-,-,Persons with Disabilities,Ready for Occupancy,1985,1985,Non-Profit,2026,29.68758783,-82.32945872,302,1,not avail.,not avail.,not avail.,not avail.,not avail.
1454,-,800004179,-,15635002001,Housing for the Handicapped Alachua Co II-9th St.,934 SW 9TH ST,Gainesville,Florida,32601,Alachua,Rental Assistance/HUD;Section 202 Direct Loan,12,12,12,-,x,-,-,-,Persons with Disabilities,Ready for Occupancy,1987,1987,Non-Profit,2027,29.64255519,-82.33347419,806,1,-,12,-,-,-
1380,2797,800004265,-,6683000000,MAJESTIC OAKS APARTMENTS,5800 SW 20TH AVE,Gainesville,Florida,32607,Alachua,Housing Credits 9%;Rental Assistance/HUD,172,172,172,x,x,-,-,-,Family;Link,Ready for Occupancy,1981,1981,For-Profit,2067,29.64106904,-82.40484648,2217,3,-,36,136,-,-
1262,-,800004309,-,7240004003,New Horizons Properties I - Joyce Apts.,3010 SW 35th Pl,Gainesville,Florida,32608,Alachua,Rental Assistance/HUD;Section 202 Direct Loan,8,8,8,-,x,-,-,-,Persons with Disabilities,Ready for Occupancy,1985,1985,Non-Profit,2025,29.62141612,-82.36895235,1515,1,-,8,-,-,-
1263,-,800004310,-,7296020022,New Horizons Properties II - Sunset &amp; Satellite,3440 SW 28TH TERRACE,Gainesville,Florida,32608,Alachua,Rental Assistance/HUD;Section 202 Direct Loan,20,20,20,-,x,-,-,-,Persons with Disabilities,Ready for Occupancy,1986,1986,Non-Profit,2027,29.6189994,-82.365871,1517,2,-,20,-,-,-
1388,-,800004311,-,7240001001,New Horizons Properties III - Transitions,3800 SW 34th ST,Gainesville,Florida,32608,Alachua,Rental Assistance/HUD;Section 202 Direct Loan,8,8,8,-,x,-,-,-,Persons with Disabilities,Ready for Occupancy,1990,1977,Non-Profit,2030,29.61880045,-82.3753581,1519,1,1,7,-,-,-
1447,-,800004001,-,10071003001,New Horizons Properties IV - Choice Apts,2101 NE 2ND ST,Gainesville,Florida,32609,Alachua,Rental Assistance/HUD;Section 811 Capital Advance,16,16,16,-,x,-,-,-,Persons with Disabilities,Ready for Occupancy,1997,1997,Non-Profit,2037,29.67172399,-82.31961932,400,3,-,4,12,-,-
1321,-,800004109,-,10071002002,PINE GROVE APTS,1901 NE 2ND ST,Gainesville,Florida,32609,Alachua,Rental Assistance/HUD;Section 207/223(f),97,96,96,-,x,-,-,-,Elderly,Ready for Occupancy,1985,1984,Non-Profit,2031,29.66944517,-82.3200654,400,3,not avail.,not avail.,not avail.,not avail.,not avail.
2009,21,800004383,-,6655057000,PINE MEADOWS APARTMENTS,7025 W UNIVERSITY AVE,Gainesville,Florida,32607,Alachua,Housing Credits 4%;Rental Assistance/HUD;Section 221(d)(4) MKT;State Bonds;State HOME,78,78,78,x,x,-,-,-,Family,Ready for Occupancy,1983,1983,For-Profit,2062,29.652256,-82.417974,2217,2,-,16,46,16,-
1414,1083,800004475,-,9542003000,SUNSET APARTMENTS,1500 NW 12TH ST,Gainesville,Florida,32601,Alachua,Rental Assistance/HUD;SAIL,40,40,25,x,x,-,-,-,Family,Ready for Occupancy,1971,1970,Non-Profit,2053,29.66569953,-82.3378035,301,2,-,-,24,16,-
1284,2680,800004509,-,14282000000,THE 400 APARTMENTS,400 NW 1ST AVE,Gainesville,Florida,32601,Alachua,Housing Credits 9%;Rental Assistance/HUD,101,101,101,x,x,-,-,-,Elderly;Family;Link,Ready for Occupancy,1979,1979,For-Profit,2066,29.65296641,-82.32882374,500,1,-,101,-,-,-
1347,1417,800004562,-,8197002001,VILLAGE GREEN APARTMENTS,3101 NE 15TH ST,Gainesville,Florida,32609,Alachua,Housing Credits 4%;Local Bonds;Rental Assistance/HUD,100,100,77,x,x,-,-,x,Family,Ready for Occupancy,1972,1971,Limited Dividend,2040,29.68257734,-82.30493828,400,1,-,20,35,35,10
243,58,800003918,-,322S22000800060020,BAKER MANOR,680 S 6TH ST,Macclenny,Florida,32063,Baker,Rental Assistance/HUD;SAIL,50,50,50,x,x,-,-,-,Family,Ready for Occupancy,1980,1974,Non-Profit,2047,30.27321791,-82.12340653,40102,2,-,12,25,13,-
1773,-,800004321,-,322S22004900020010,NORTHWOOD APARTMENTS,307 E OHIO AVE,Macclenny,Florida,32063,Baker,Refi Section 221(d)(4) MR;Rental Assistance/HUD,52,52,52,-,x,-,-,-,Elderly,Ready for Occupancy,1980,1981,For-Profit,2031,30.28788216,-82.11797126,40101,2,-,12,24,16,-
509,2463,800004061,-,28472-020-000,EDGEWOOD GARDEN APARTMENTS,3325 W 23RD ST,Panama City,Florida,32405,Bay,Exchange;Housing Credits 9%;Rental Assistance/HUD,94,94,94,x,x,-,-,-,Family;Link,Ready for Occupancy,1973,1973,For-Profit,2062,30.18868173,-85.70465014,2400,2,-,16,42,28,8
1944,2534,800004104,-,14476-010-000,FOXWOOD APARTMENTS,1701 HAMILTON AVE,Panama City,Florida,32405,Bay,Housing Credits 9%;Rental Assistance/HUD;Section 207/223(f),100,100,100,x,x,-,-,-,Family;Link,Ready for Occupancy,1980,1980,For-Profit,2064,30.17933235,-85.65302059,1600,1,-,-,24,52,24
2093,-,800004117,-,31144-015-000,GIBB GULF COAST VILLAGE,6200 N LAGOON DR,Panama City,Florida,32408,Bay,Rental Assistance/HUD;Section 202 Direct Loan,40,39,39,-,x,-,-,-,Persons with Disabilities,Ready for Occupancy,1994,1994,Non-Profit,2017,30.15422659,-85.75235517,2604,3,not avail.,not avail.,not avail.,not avail.,not avail.
709,-,800004360,-,13829-000-000,MACEDONIA GARDENS,1722 W 17TH ST,Panama City,Florida,32405,Bay,Rental Assistance/HUD,100,100,100,-,x,-,-,-,Family,Ready for Occupancy,1970,1969,For-Profit,2031,30.17971668,-85.68797878,2200,1,-,-,28,72,-
1820,2056,800004359,-,13828-020-000,PANA VILLA GARDEN APARTMENTS,1802 FLOWER AVE,Panama City,Florida,32405,Bay,Exchange;Housing Credits 9%;Rental Assistance/HUD;State HOME;Tax Credit Assistance Program,72,72,72,x,x,-,-,-,Family;Link,Ready for Occupancy,1971,2011,For-Profit,2061,30.18052519,-85.68797318,2200,1,-,16,24,24,8
1851,-,800004418,-,18140-000-000,ROYAL ARMS GARDEN APARTMENTS,1420 BALBOA AVE,Panama City,Florida,32401,Bay,Rental Assistance/HUD,88,80,80,-,x,-,-,-,Family,Ready for Occupancy,1972,1971,For-Profit,2029,30.17296019,-85.67415883,2200,2,not avail.,not avail.,not avail.,not avail.,not avail.
2038,-,800004457,-,19672-000-000,ST. ANDREWS TOWERS,24 HARRISON AVE,Panama City,Florida,32401,Bay,Rental Assistance/HUD;Section 207/223(f),216,216,216,-,x,-,-,-,Elderly,Ready for Occupancy,1979,1979,For-Profit,2029,30.15294483,-85.66199352,2000,1,-,216,-,-,-
1949,2496,800004427,-,27855-000-000,SAND DUNES APARTMENTS,8011 FRONT BEACH ROAD,Panama City Beach,Florida,32407,Bay,Housing Credits 4%;Rental Assistance/HUD;Section 221(d)(4) MKT;State Bonds;State HOME,104,104,103,x,x,-,-,-,Elderly;Family,Ready for Occupancy,1984,1983,For-Profit,2033,30.18337463,-85.77412031,2603,1,not avail.,not avail.,not avail.,not avail.,not avail.
6512,-,800214849,-,23328-010-000,GIBB SPRINGFIELD VILLAGE,3301-3407 E 4th St,Springfield,Florida,32401,Bay,Rental Assistance/HUD;Section 811 Capital Advance,12,11,11,-,x,-,-,-,Persons with Disabilities,Ready for Occupancy,2004,2004,Non-Profit,2044,30.15512646,-85.61724814,1000,2,not avail.,not avail.,not avail.,not avail.,not avail.
1739,-,800004339,-,04416-0-00100,ORANGEWOOD APTS,801 S WATER STREET,Starke,Florida,32091,Bradford,Rental Assistance/HUD;Section 515,46,46,46,-,x,-,x,-,Family,Ready for Occupancy,1982,1984,For-Profit,2032,29.93687325,-82.10719217,100,5,-,6,28,12,-
3105,-,800214868,-,24 362000  2611,ABILITIES AT COLLEGE PINES,1552 University Ln,Cocoa,Florida,32922,Brevard,Rental Assistance/HUD;Section 811 Capital Advance,16,16,16,-,x,-,-,-,Persons with Disabilities,Ready for Occupancy,2003,1981,Non-Profit,2043,28.38566752,-80.75444469,62302,2,-,-,16,-,-
3104,-,800212816,-,24 3629BY        1401,ABILITIES AT CRESTVIEW,800 N Fiske Blvd,Cocoa,Florida,32922,Brevard,Rental Assistance/HUD;Section 811 Capital Advance,18,18,18,-,x,-,-,-,Persons with Disabilities,Ready for Occupancy,2002,1964,Non-Profit,2042,28.36809421,-80.74116366,62301,1,-,9,9,-,-
7232,-,800235851,-,24 3629BY        1401,ABILITIES AT CRESTVIEW II,800 North Fiske Blvd,Cocoa,Florida,32924,Brevard,Rental Assistance/HUD;Section 811 Capital Advance,7,7,7,-,x,-,-,-,Elderly,Ready for Occupancy,1900,1964,Non-Profit,2052,28.36816173,-80.74135679,62301,1,-,4,3,-,-
2219,-,800112349,-,24 3629BY        1201,ABILITIES AT WINDOVER,1050 N FISKE BLVD,Cocoa,Florida,32922,Brevard,Rental Assistance/HUD;Section 811 Capital Advance,10,10,10,-,x,-,-,-,Persons with Disabilities,Ready for Occupancy,2000,1981,Non-Profit,2040,28.37053984,-80.74191538,62301,1,-,6,4,-,-
1814,-,800003952,-,24 3629BY         701,CANDLEWOOD APARTMENTS,811 Crestview Dr,Cocoa,Florida,32922,Brevard,Rental Assistance/HUD,100,70,70,-,x,-,-,-,Family,Ready for Occupancy,1982,1983,For-Profit,2033,28.37248489,-80.74157639,62301,1,not avail.,not avail.,not avail.,not avail.,not avail.
1746,-,800004009,-,24 362000  272,COCOA LAKES APARTMENTS,201 ST. CLAIR DRIVE,Cocoa,Florida,32922,Brevard,Rental Assistance/HUD,50,49,49,-,x,-,-,-,Family,Ready for Occupancy,1983,1982,For-Profit,2034,28.387474,-80.749684,62302,2,not avail.,not avail.,not avail.,not avail.,not avail.
7285,-,800235466,-,24 362900  250,WESTMINSTER ASBURY EAST,1404 Dixon Boulevard,Cocoa,Florida,32922,Brevard,Rental Assistance/HUD;Section 202 Capital Advance,68,68,68,-,x,-,-,-,Elderly,Ready for Occupancy,2014,not avail.,Non-Profit,2017,28.37424568,-80.75156671,62302,3,-,68,-,-,-
31,-,800067140,-,24 362900  2521,Westminster Asbury North,1430 Dixon Blvd,Cocoa,Florida,32922,Brevard,Rental Assistance/HUD;Section 202 Capital Advance,50,50,50,-,x,-,-,-,Elderly,Ready for Occupancy,1999,1971,Non-Profit,2039,28.37403364,-80.75334509,62302,3,-,50,-,-,-
2044,-,800003906,-,24 362900  2521,Westminster Asbury South,1430 DIXON BLVD,Cocoa,Florida,32922,Brevard,Rental Assistance/HUD,150,142,142,-,x,-,-,-,Elderly,Ready for Occupancy,1971,1971,Non-Profit,2019,28.37403928,-80.75333139,62302,3,not avail.,not avail.,not avail.,not avail.,not avail.
1854,-,800004524,-,24 362200  783,TROPICAL MANOR APARTMENTS,1165 Jordan Rd,MERRITT ISLAND,Florida,32953,Brevard,Rental Assistance/HUD,85,85,85,-,x,-,-,-,Family,Ready for Occupancy,1969,1968,For-Profit,2025,28.37894196,-80.70957724,69902,3,-,-,85,-,-
6923,-,800221256,-,27 371900  267,ABILITIES AT ENGLISH PARK,1225 N Wickham Rd,Melbourne,Florida,32935,Brevard,Rental Assistance/HUD;Section 811 Capital Advance,5,5,5,-,x,-,-,-,Elderly,Ready for Occupancy,2008,1978,Non-Profit,2048,28.12634837,-80.67051626,64500,2,-,2,3,-,-
6653,-,800219355,-,27 371700    61,ABILITIES AT SAN JUAN II,100 San Juan Circle,Melbourne,Florida,32935,Brevard,Rental Assistance/HUD;Section 811 Capital Advance,7,7,7,-,x,-,-,-,Persons with Disabilities,Ready for Occupancy,2005,1979,Non-Profit,2045,28.13656001,-80.645435,64302,1,-,5,2,-,-
136,-,800003902,-,28 370900  758,ARCH CREEK RUN,173 Rachel St,Melbourne,Florida,32901,Brevard,Rental Assistance/HUD,96,96,96,-,x,-,-,-,Family,Ready for Occupancy,1982,1982,For-Profit,2034,28.057674,-80.62378,64901,3,-,52,37,7,-
1848,-,800003907,-,27 370800   23,ASCENSION MANOR,2960 PINEAPPLE AVENUE,Melbourne,Florida,32935,Brevard,Rental Assistance/HUD;Section 202 Capital Advance,76,76,76,-,x,-,-,-,Elderly,Ready for Occupancy,1995,1995,Non-Profit,2035,28.15532253,-80.64031996,64202,2,-,76,-,-,-
1628,-,800003939,-,28 371079    13,BRIARSTONE APARTMENTS,3034 LIPSCOMB ST,Melbourne,Florida,32901,Brevard,Rental Assistance/HUD,14,14,14,-,x,-,-,-,Family,Ready for Occupancy,1971,1970,For-Profit,2018,28.06280521,-80.60526198,65124,2,-,-,-,14,-
1810,-,800004437,-,28 371000  752,SHULL MANOR APARTMENTS,713 E University Blvd,Melbourne,Florida,32901,Brevard,Rental Assistance/HUD,65,65,65,-,x,-,-,-,Family,Ready for Occupancy,1969,1968,For-Profit,2025,28.06286576,-80.60851212,65124,2,-,-,65,-,-
2063,2812,800004519,-,28 3703FC   34    7,TRINITY TOWERS EAST,700 E STRAWBRIDGE AVE,Melbourne,Florida,32901,Brevard,Elderly Housing Community Loan;Extremely Low Income;Housing Credits 4%;Rental Assistance/HUD;SAIL;Section 202 Direct Loan;State Bonds,156,141,106,x,x,-,-,-,Elderly;Family;Link,Ready for Occupancy,1967,1969,Limited Dividend,2068,28.07980752,-80.60907121,64800,2,not avail.,not avail.,not avail.,not avail.,not avail.
2147,2793,800004520,-,28 370375         503,TRINITY TOWERS SOUTH,615 E NEW HAVEN AVE,Melbourne,Florida,32901,Brevard,Elderly Housing Community Loan;Rental Assistance/HUD;Section 207/223(f),162,162,162,x,x,-,-,-,Elderly;Family,Ready for Occupancy,1982,1982,Limited Dividend,2032,28.077367,-80.61075608,64902,1,130,32,-,-,-
2045,2695,800004521,-,28 370301   39    1,TRINITY TOWERS WEST,650 E STRAWBRIDGE AVE,Melbourne,Florida,32901,Brevard,Housing Credits 9%;Rental Assistance/HUD;Section 236,192,183,136,x,x,-,-,-,Elderly;Family;Link,Ready for Occupancy,1972,1971,Limited Dividend,2066,28.07979246,-80.61003076,64800,2,not avail.,not avail.,not avail.,not avail.,not avail.
1881,-,800004444,-,28 372200  279,SOUTHLAKE TOWERS,5501 PINEWOOD DR NE,Palm Bay,Florida,32905,Brevard,Rental Assistance/HUD;Section 202 Direct Loan,85,85,85,-,x,-,-,-,Elderly,Ready for Occupancy,1986,1986,Non-Profit,2032,28.04053502,-80.61416924,65122,1,22,63,-,-,-
1643,-,800003923,-,25 360800  767,SPRINGWOOD ESTATES,951 EYSTER BLVD,Rockledge,Florida,32955,Brevard,Rental Assistance/HUD;Section 202 Direct Loan,24,24,24,-,x,-,-,-,Persons with Disabilities,Ready for Occupancy,1982,1982,Non-Profit,2032,28.3231098,-80.73928974,63105,1,-,24,-,-,-
581,-,800003924,-,25 361700  759,WOODSMERE ESTATES,980 BRIDLE LN,Rockledge,Florida,32955,Brevard,Rental Assistance/HUD;Section 202 Direct Loan,15,15,15,-,x,-,-,-,Persons with Disabilities,Ready for Occupancy,1990,1990,Non-Profit,2032,28.30975999,-80.74006446,63105,5,15,-,-,-,-
554,258,800004065,-,22 350900  759,"EMERALD PLACE APTS OF BREVARD,LTD.",1040 Tree Ln,Titusville,Florida,32780,Brevard,Housing Credits 9%;Rental Assistance/HUD,136,136,42,x,x,-,-,-,Family,Ready for Occupancy,1994,1982,For-Profit,2044,28.586992,-80.815245,60600,1,-,24,104,8,-
1812,-,800004101,-,22 350400   231,FOREST PARK SOUTH,521 Rockpit Rd,Titusville,Florida,32796,Brevard,Refi Section 221(d)(4) MR;Rental Assistance/HUD,68,68,68,-,x,-,-,-,Family,Ready for Occupancy,1981,1981,For-Profit,2032,28.60973074,-80.821004,60400,4,-,16,16,36,-
1497,-,800004456,-,4.84E+11,ST. ANDREW TOWERS,2700 NW 99TH AVE,Coral Springs,Florida,33065,Broward,Rental Assistance/HUD;Section 236,438,324,324,-,x,-,-,-,Elderly,Ready for Occupancy,1974,1974,Non-Profit,2036,26.263564,-80.25812,20314,2,not avail.,not avail.,not avail.,not avail.,not avail.
2019,-,800004538,-,5.04E+11,OUR HOUSE IN DANIA,840 W Dania Beach Blvd,Dania,Florida,33004,Broward,Rental Assistance/HUD,12,12,12,-,x,-,-,-,Persons with Disabilities,Ready for Occupancy,1984,1984,Non-Profit,2025,26.05173918,-80.15010206,80500,2,-,12,-,-,-
1427,-,800004003,-,5.04E+11,CIRCLE L APARTMENTS,6601 SW 41ST ST,Davie,Florida,33314,Broward,Rental Assistance/HUD;Section 202 Direct Loan,15,15,15,-,x,-,-,-,Persons with Disabilities,Ready for Occupancy,1987,1987,Non-Profit,2027,26.07183398,-80.23502097,70601,2,15,-,-,-,-
1349,-,800004083,-,5.04E+11,FEDERATION GARDENS OF DAVIE,5701 SW 82ND AVE,Davie,Florida,33328,Broward,Rental Assistance/HUD;Section 202 Direct Loan,80,79,79,-,x,-,-,-,Elderly,Ready for Occupancy,1991,1991,Non-Profit,2031,26.04930007,-80.25797444,70602,1,not avail.,not avail.,not avail.,not avail.,not avail.
74230,-,800240614,-,5.04E+11,GRIFFIN GARDENS,4881 Griffin Rd,Davie,Florida,33314,Broward,Rental Assistance/HUD,100,100,100,-,x,-,-,-,Elderly;Family,Ready for Occupancy,1982,1983,Non-Profit,2034,26.06448881,-80.21148392,70101,3,-,90,10,-,-
1260,-,800004466,-,5.14E+11,STIRLING ROAD APARTMENTS,4100 NW 77 AVE,Davie,Florida,33024,Broward,Rental Assistance/HUD;Section 202 Direct Loan,15,15,15,-,x,-,-,-,Persons with Disabilities,Ready for Occupancy,1989,1990,Non-Profit,2029,26.0441067,-80.24233591,70502,2,15,-,-,-,-
1314,-,800003915,-,4.84E+11,B'NAI B'RITH APARTMENTS,299 SW 3RD AVE,Deerfield Beach,Florida,33441,Broward,Rental Assistance/HUD;Section 202 Direct Loan,100,99,99,-,x,-,-,-,Elderly,Ready for Occupancy,1987,1987,Non-Profit,2028,26.31407064,-80.10841795,10305,2,not avail.,not avail.,not avail.,not avail.,not avail.
2153,-,800003914,-,4.84E+11,B'NAI B'RITH APARTMENTS II,255 SW 3RD AVE,Deerfield Beach,Florida,33441,Broward,Rental Assistance/HUD;Section 202 Direct Loan,83,83,83,-,x,-,-,-,Elderly,Ready for Occupancy,1994,1994,Non-Profit,2016,26.31512772,-80.1084311,10305,2,-,83,-,-,-
7031,-,800221231,-,4.84E+11,B'NAI B'RITH APARTMENTS III,299 SW 3rd Avenue,Deerfield Beach,Florida,33441,Broward,Rental Assistance/HUD;Section 202 Capital Advance,88,88,88,-,x,-,-,-,Elderly,Ready for Occupancy,2008,1987,Non-Profit,2017,26.31408385,-80.10834961,10305,2,-,88,-,-,-
74312,-,800240613,-,4.84E+11,HIGHLAND GARDENS,331 NE 48th St,Deerfield Beach,Florida,33064,Broward,Rental Assistance/HUD,100,100,100,-,x,-,-,-,Elderly;Family,Ready for Occupancy,1980,2008,Non-Profit,2034,26.29086666,-80.11850245,10702,1,-,100,-,-,-
1010,-,800003888,-,5.04E+11,ALAN APARTMENTS,915 SISTRUNK BLVD,Fort Lauderdale,Florida,33311,Broward,Rental Assistance/HUD,72,72,72,-,x,-,-,-,Elderly,Ready for Occupancy,1979,1949,For-Profit,2019,26.1303695,-80.15435063,41500,1,-,72,-,-,-
961,112,800003946,-,4.94E+11,BROWARD GARDENS,2960 NW 19TH ST,Fort Lauderdale,Florida,33311,Broward,Housing Credits 9%;Rental Assistance/HUD,96,96,96,x,x,-,-,-,Family;Link,Ready for Occupancy,1972,1973,For-Profit,2044,26.15036073,-80.18384535,41000,2,-,-,48,48,-
2074,242,800004055,-,4.94E+11,DRIFTWOOD TERRACE APARTMENTS,3146 NW 19TH STREET,Fort Lauderdale,Florida,33311,Broward,Housing Credits 4%;Local Bonds;Rental Assistance/HUD;State Bonds,176,176,174,x,x,-,-,x,Family,Ready for Occupancy,1989,1973,For-Profit,2060,26.14989651,-80.18801242,41200,1,-,-,80,80,16
2292,-,800039214,-,4.94E+11,FEDERAL APARTMENTS,821 NW 11TH AVENUE,Fort Lauderdale,Florida,33311,Broward,Refi Section 221(d)(4);Rental Assistance/HUD,164,164,164,-,x,-,-,-,Family,Ready for Occupancy,1988,1949,For-Profit,2035,26.13307599,-80.15629662,41500,1,-,-,146,11,7
1020,-,800004112,-,5.04E+11,GATEWAY TERRACE APARTMENTS,1943 NE 6TH CT,Fort Lauderdale,Florida,33304,Broward,Rental Assistance/HUD;Section 202 Direct Loan,257,252,252,-,x,-,-,-,Elderly,Ready for Occupancy,1988,1958,Non-Profit,2035,26.13145637,-80.12014837,41802,3,not avail.,not avail.,not avail.,not avail.,not avail.
1009,-,800004165,-,4.94E+11,HILLMONT GARDENS,2001 NW 9TH AVE,Fort Lauderdale,Florida,33311,Broward,Rental Assistance/HUD;Section 207/223(f),124,123,123,-,x,-,-,-,Elderly,Ready for Occupancy,1987,1987,Non-Profit,2027,26.15446573,-80.15504765,40901,1,not avail.,not avail.,not avail.,not avail.,not avail.
1011,-,800004219,-,5.04E+11,L.A. LEE TERRACE APARTMENTS,519 NW 14TH AVE,Fort Lauderdale,Florida,33311,Broward,Rental Assistance/HUD,65,65,65,-,x,-,-,-,Family,Ready for Occupancy,1971,1971,Non-Profit,2017,26.12823788,-80.15997392,41600,3,-,-,35,30,-
72980,-,800241206,-,5.04E+11,MEYERS ESTATES,2411 NW 7th St,Fort Lauderdale,Florida,33311,Broward,Rental Assistance/HUD,87,50,50,-,x,-,-,-,Elderly;Family,Ready for Occupancy,1989,1957,Non-Profit,2034,26.13141136,-80.17433243,41400,2,not avail.,not avail.,not avail.,not avail.,not avail.
1018,-,800004298,-,5.04E+11,MOUNT OLIVE GARDENS APARTMENTS,1701 NW 6 Ct,Fort Lauderdale,Florida,33311,Broward,Rental Assistance/HUD,60,59,59,-,x,-,-,-,Family,Ready for Occupancy,1970,1972,Non-Profit,2017,26.12984537,-80.16494321,41500,2,not avail.,not avail.,not avail.,not avail.,not avail.
1031,-,800003903,-,5.14E+11,ARCHBISHOP HURLEY HALL,632 NW FIRST ST,HALLANDALE,Florida,33009,Broward,Rental Assistance/HUD;Section 207/223(f),121,120,120,-,x,-,-,-,Elderly,Ready for Occupancy,1989,1990,Non-Profit,2034,25.986926,-80.15583082,100400,2,not avail.,not avail.,not avail.,not avail.,not avail.
1498,-,800004563,-,5.14E+11,WESLEY GROUP HOME,616 SW 3RD ST,HALLANDALE,Florida,33009,Broward,Rental Assistance/HUD;Section 811 Capital Advance,7,6,6,-,x,-,-,-,Persons with Disabilities,Ready for Occupancy,1997,1998,Non-Profit,2037,25.98184169,-80.15493052,100300,3,not avail.,not avail.,not avail.,not avail.,not avail.
1806,-,800003968,-,5.14E+11,CAMBRIDGE SQUARE OF HOLLYWOOD,6741 JOHNSON ST,Hollywood,Florida,33024,Broward,Rental Assistance/HUD;Section 236,168,68,68,-,x,-,-,-,Family,Ready for Occupancy,1973,1973,Limited Dividend,2017,26.01794831,-80.22298465,91201,1,not avail.,not avail.,not avail.,not avail.,not avail.
1989,-,800004087,-,5.14E+11,FEDERATION PLAZA,3081 TAFT ST,Hollywood,Florida,33021,Broward,Rental Assistance/HUD;Section 202 Direct Loan,124,123,123,-,x,-,-,-,Elderly,Ready for Occupancy,1987,1988,Non-Profit,2036,26.02656266,-80.17010411,90802,4,not avail.,not avail.,not avail.,not avail.,not avail.
1384,-,800004472,-,5.14E+11,SUNBELT MANOR,900 N 66th Ter,Hollywood,Florida,33024,Broward,Refi Section 221(d)(4) MR;Rental Assistance/HUD,50,50,50,-,x,-,-,-,Elderly,Ready for Occupancy,1983,1983,For-Profit,2029,26.01794256,-80.22132923,91201,1,-,50,-,-,-
1494,-,800003965,-,4.94E+11,CAMBRIDGE SQ OF LAUDERDALE LAKES II,3841 NW 21st St,Lauderdale Lakes,Florida,33311,Broward,Rental Assistance/HUD;Section 236,168,107,107,-,x,-,-,-,Family,Ready for Occupancy,1974,1972,Limited Dividend,2032,26.152838,-80.199661,50308,1,not avail.,not avail.,not avail.,not avail.,not avail.
1496,-,800003966,-,4.94E+11,CAMBRIDGE SQUARE LAUDERDALE LAKES I,3841 NW 21st ST,Lauderdale Lakes,Florida,33311,Broward,Rental Assistance/HUD,168,162,162,-,x,-,-,-,Family,Ready for Occupancy,1972,1972,For-Profit,2032,26.152838,-80.199661,50308,1,not avail.,not avail.,not avail.,not avail.,not avail.
1344,2671,800003972,-,494125CH0000,CARAVEL ARMS APARTMENTS,4844 NW 24TH CT,Lauderdale Lakes,Florida,33313,Broward,Extremely Low Income;Housing Credits 4%;Rental Assistance/HUD;SAIL;Section 207/223(f);State Bonds,110,110,93,x,x,-,-,-,Family,Ready for Occupancy,1970,1971,For-Profit,2049,26.15523626,-80.21567878,60401,2,not avail.,not avail.,not avail.,not avail.,not avail.
1304,-,800004453,-,4.94E+11,ST. JOSEPH TOWERS,3475 NW 30TH STREET,Lauderdale Lakes,Florida,33311,Broward,Rental Assistance/HUD;Section 207/223(f),108,107,107,-,x,-,-,-,Elderly,Ready for Occupancy,1984,1979,Non-Profit,2036,26.16379195,-80.19350693,50307,1,not avail.,not avail.,not avail.,not avail.,not avail.
6640,-,800217579,-,5.14E+11,DGN TOWERS,705 SW 88 Avenue,Pembroke Pines,Florida,33025,Broward,Rental Assistance/HUD;Section 202 Capital Advance,94,94,94,-,x,-,-,-,Elderly,Ready for Occupancy,2006,2006,Non-Profit,2017,26.00391416,-80.25927859,110341,2,-,94,-,-,-
7027,-,800222786,-,5.14E+11,DGN TOWERS II,605 SW 88th Ave,Pembroke Pines,Florida,33025,Broward,Rental Assistance/HUD;Section 202 Capital Advance,52,52,52,-,x,-,-,-,Elderly,Ready for Occupancy,2008,2006,Non-Profit,2017,26.00374545,-80.25938555,110341,2,-,52,-,-,-
7231,-,800231924,-,5.14E+11,DGN TOWERS III,705 SW 88th Ave,Pembroke Pines,Florida,33025,Broward,Rental Assistance/HUD;Section 202 Capital Advance,75,75,75,-,x,-,-,-,Elderly,Ready for Occupancy,2013,2006,Non-Profit,2053,26.00414844,-80.25926181,110341,2,-,75,-,-,-
1911,-,800004375,-,5.14E+11,PEMBROKE TOWERS,2201 N UNIVERSITY DR,Pembroke Pines,Florida,33024,Broward,Rental Assistance/HUD,100,100,100,-,x,-,-,-,not avail.,Ready for Occupancy,1978,1980,For-Profit,2030,26.02877883,-80.24534891,90700,2,60,40,-,-,-
3110,-,800211358,-,5.14E+11,ST. BONIFACE GARDENS,8200 Johnson Street,Pembroke Pines,Florida,33024,Broward,Rental Assistance/HUD;Section 202 Capital Advance,96,95,95,-,x,-,-,-,Elderly,Ready for Occupancy,2003,2002,Non-Profit,2017,26.01554782,-80.25198529,110312,3,not avail.,not avail.,not avail.,not avail.,not avail.
1521,-,800004123,-,5.04E+11,GIZMO HOUSE,4030 SW 2ND ST.,Plantation,Florida,33317,Broward,Rental Assistance/HUD;Section 811 Capital Advance,6,6,6,-,x,-,-,-,Persons with Disabilities,Ready for Occupancy,1998,1998,Non-Profit,2038,26.11785126,-80.20338434,60801,1,-,6,-,-,-
102,-,800004313,-,4.94E+11,NEW VISTAS,868 SW 10TH ST,Pompano Beach,Florida,33060,Broward,Rental Assistance/HUD;Section 202 Direct Loan,16,16,16,-,x,-,-,-,Persons with Disabilities,Ready for Occupancy,1989,1990,Non-Profit,2030,26.21657188,-80.13506892,30801,4,12,4,-,-,-
7373,-,800241208,-,4.84E+11,PARK RIDGE COURT APARTMENTS,5200 NE 5th Ter,Pompano Beach,Florida,33064,Broward,Rental Assistance/HUD,37,37,37,-,x,-,-,-,Family,Ready for Occupancy,1989,1989,Non-Profit,2034,26.29518118,-80.1145944,10702,1,-,-,-,37,-
1340,-,800004459,-,4.84E+11,ST. ELIZABETH GARDENS,801 NE 33rd St,Pompano Beach,Florida,33064,Broward,Rental Assistance/HUD;Section 202 Direct Loan,151,100,100,-,x,-,-,-,Elderly,Ready for Occupancy,1968,1970,Non-Profit,2036,26.272578,-80.11203637,30201,2,not avail.,not avail.,not avail.,not avail.,not avail.
7449,-,800235463,-,not avail.,ST. JOSEPH MANOR,1210 NW 6th Ave,Pompano Beach,Florida,33060,Broward,Rental Assistance/HUD;Section 202 Capital Advance,62,62,62,-,x,-,-,-,Elderly,Ready for Occupancy,2015,not avail.,Non-Profit,2018,,,not avail.,not avail.,-,62,-,-,-
1981,-,800004082,-,4.94E+11,FEDERATION GARDENS,5010 NOB HILL ROAD,Sunrise,Florida,33351,Broward,Rental Assistance/HUD;Section 202 Direct Loan,123,123,123,-,x,-,-,-,Elderly,Ready for Occupancy,1991,1992,Non-Profit,2031,26.18683947,-80.28108023,60113,2,31,92,-,-,-
662,-,800004086,-,4.94E+11,FEDERATION LANDINGS,5020  NOB HILL ROAD,Sunrise,Florida,33351,Broward,Rental Assistance/HUD;Section 202 Capital Advance,77,77,77,-,x,-,-,-,Elderly,Ready for Occupancy,1995,1996,Non-Profit,2035,26.18780231,-80.2810928,60113,2,-,77,-,-,-
269,-,800004481,-,32-1N-08-0000-0024-0100,SUTTON CREEK APARTMENTS,305 N MAYO,Blountstown,Florida,32424,Calhoun,Rental Assistance/HUD;Section 515,50,50,50,-,x,-,x,-,Family,Ready for Occupancy,1980,1980,For-Profit,2030,30.44578301,-85.0567262,10300,5,-,8,30,12,-
1948,-,800004135,-,4.12E+11,GROVE CITY MANOR,6433 Gasparilla Pines Blvd,GROVE CITY,Florida,34224,Charlotte,Rental Assistance/HUD;Section 207/223(f),101,100,100,-,x,-,-,-,Elderly,Ready for Occupancy,1980,1980,Non-Profit,2030,26.8810234,-82.3034393,30502,1,not avail.,not avail.,not avail.,not avail.,not avail.
1889,-,800003996,-,4.02E+11,"PRESBYTERIAN HOMES OF CHARLOTTE, INC.",2295 AARON ST,PORT CHARLOTTE,Florida,33952,Charlotte,Rental Assistance/HUD;Section 202 Direct Loan,97,97,97,-,x,-,-,-,Elderly,Ready for Occupancy,1979,1979,Non-Profit,2019,26.99072603,-82.10163798,20700,1,-,97,-,-,-
2139,-,800004557,-,4.02E+11,VILLA SAN CARLOS,2550 EASY ST,PORT CHARLOTTE,Florida,33952,Charlotte,Rental Assistance/HUD;Section 202 Direct Loan,50,50,50,-,x,-,-,-,Elderly,Ready for Occupancy,1986,1986,Non-Profit,2036,26.98868337,-82.09340446,20800,2,13,37,-,-,-
1776,-,800004558,-,4.02E+11,VILLA SAN CARLOS II,22250 VICK ST,PORT CHARLOTTE,Florida,33980,Charlotte,Rental Assistance/HUD;Section 202 Capital Advance,54,53,53,-,x,-,-,-,Elderly,Ready for Occupancy,1995,1995,Non-Profit,2017,26.96612456,-82.08174125,21003,1,not avail.,not avail.,not avail.,not avail.,not avail.
6652,-,800222550,-,4.02E+11,HARBOR PLACE APARTMENTS,632 Elliott Circle,Port Charlotte,Florida,33952,Charlotte,Rental Assistance/HUD;Section 811 Capital Advance,14,14,14,-,x,-,-,-,Persons with Disabilities,Ready for Occupancy,2008,2008,Non-Profit,2017,26.99648949,-82.1201196,20601,2,-,9,5,-,-
2225,-,800211387,-,4.12E+11,WILLIAM PLACE,218 West William Street,Punta Gorda,Florida,33950,Charlotte,Rental Assistance/HUD;Section 811 Capital Advance,12,12,12,-,x,-,-,-,Persons with Disabilities,Ready for Occupancy,2001,2001,Non-Profit,2016,26.92826907,-82.04941186,10301,1,-,10,2,-,-
1600,-,800004203,-,20E19S180050  D0080 0041,KEY CENTER HOMES,505 ELLA AVENUE,Inverness,Florida,34450,Citrus,Rental Assistance/HUD;Section 811 Capital Advance,12,12,12,-,x,-,-,-,Persons with Disabilities,Ready for Occupancy,1993,2005,Non-Profit,2016,28.84216885,-82.34143678,450902,1,-,12,-,-,-
1601,-,800004204,-,20E19S170010  00070 0120,KEY LIGHT HOMES,307 EMORY STREET,Inverness,Florida,34450,Citrus,Rental Assistance/HUD;Section 202 Direct Loan,12,12,12,-,x,-,-,-,Persons with Disabilities,Ready for Occupancy,1990,1990,Non-Profit,2031,28.83875098,-82.33324597,450902,1,12,-,-,-,-
1587,-,800004205,-,20E19S170020  00140 0140,KEY MANOR APARTMENTS,408 ZEPHYR ST,Inverness,Florida,34450,Citrus,Rental Assistance/HUD;Section 202 Direct Loan,8,8,8,-,x,-,-,-,Persons with Disabilities,Ready for Occupancy,1993,1992,Non-Profit,2033,28.84037449,-82.33461898,450902,1,2,6,-,-,-
1602,-,800004207,-,20E19S180070  000G0 0100,KEY VISTA APARTMENTS,222 PLEASANT GROVE RD,Inverness,Florida,34450,Citrus,Rental Assistance/HUD;Section 811 Capital Advance,17,17,17,-,x,-,-,-,Persons with Disabilities,Ready for Occupancy,1996,1996,Non-Profit,2036,28.83336392,-82.3524202,451400,2,-,17,-,-,-
2001,-,800004162,-,38-06-26-017136-003-00,HIGHLAND APARTMENTS,100 WEST JOEY CIRCLE,Green Cove Springs,Florida,32043,Clay,Rental Assistance/HUD;Section 223(f) Refi/Purchase,52,52,52,-,x,-,-,-,Family,Ready for Occupancy,1984,1979,For-Profit,2034,29.982395,-81.6891272,31400,1,-,8,20,24,-
1627,-,800004403,-,38-06-26-017196-000-00,RAMBLEWOOD APARTMENTS,801 Ferris St,Green Cove Springs,Florida,32043,Clay,Rental Assistance/HUD,13,13,13,-,x,-,-,-,Family,Ready for Occupancy,1978,1978,For-Profit,2018,29.99078363,-81.68306275,31400,1,-,7,6,-,-
69,516,800004287,-,08-04-26-019912-000-00,MIDDLETOWNE APARTMENTS,1809 DEBARRY AVE,Orange Park,Florida,32073,Clay,Local Bonds;Rental Assistance/HUD;SAIL,100,100,85,x,x,-,-,x,Family,Ready for Occupancy,1973,1972,Limited Dividend,2051,30.168612,-81.7204166,30500,2,-,20,40,40,-
1701,-,800004526,-,27192502758,CYPRESS RUN,550 HOPE CIRCLE,IMMOKALEE,Florida,33934,Collier,Rental Assistance/HUD;Section 202 Capital Advance,40,39,39,-,x,-,-,-,Elderly,Ready for Occupancy,1997,1997,Non-Profit,2037,26.4025235,-81.42504661,11204,1,not avail.,not avail.,not avail.,not avail.,not avail.
1916,-,800004188,-,126120000,IMMOKALEE APTS,601 W DELAWARE AVE,IMMOKALEE,Florida,34142,Collier,Rental Assistance/HUD,100,100,100,-,x,-,-,-,Family,Ready for Occupancy,1971,1971,For-Profit,2022,26.41192976,-81.42219816,11204,3,-,-,60,40,-
620,-,800004017,-,71750001029,COLLIER HOUSING ALTERNATIVES,4211 THOMASSON DRIVE,Naples,Florida,34112,Collier,Rental Assistance/HUD;Section 811 Capital Advance,10,9,9,-,x,-,-,-,Persons with Disabilities,Ready for Occupancy,1997,not avail.,Non-Profit,2017,26.106003,-81.754097,10702,1,not avail.,not avail.,not avail.,not avail.,not avail.
1324,3,800004114,-,18060060001,GEORGE WASHINGTON CARVER APARTMENTS,350 10th St N,Naples,Florida,34102,Collier,Housing Credits 4%;Local Bonds;Rental Assistance/HUD,70,70,70,x,x,-,-,x,Family,Ready for Occupancy,1981,1981,For-Profit,2027,26.15207972,-81.79411829,700,1,-,12,36,22,-
1571,-,800004128,-,268400002,GOODLETTE ARMS,950 GOODLETTE RD N,Naples,Florida,34102,Collier,Local Bonds;Rental Assistance/HUD,250,242,242,-,x,-,-,x,Elderly;Family,Ready for Occupancy,1975,1975,Limited Dividend,2032,26.16111969,-81.78814003,10210,2,not avail.,not avail.,not avail.,not avail.,not avail.
2204,-,800066830,-,38043880000,HOUSING ALTERNATIVES OF SW FLORIDA,3401 21ST AVE SW,Naples,Florida,34116,Collier,Rental Assistance/HUD;Section 811 Capital Advance,12,6,6,-,x,-,-,-,Persons with Disabilities,Ready for Occupancy,1999,1990,Non-Profit,2039,26.1914439,-81.67584591,10413,2,not avail.,not avail.,not avail.,not avail.,not avail.
132,-,800003973,-,33-3S-17-06652-000,CARC HOUSING,286 SE Lochlynn Ter,Lake City,Florida,32025,Columbia,Rental Assistance/HUD;Section 202 Direct Loan,13,13,13,-,x,-,-,-,Persons with Disabilities,Ready for Occupancy,1989,1989,Non-Profit,2029,30.18328137,-82.62015788,110400,2,-,13,-,-,-
1058,-,800003989,-,30-3S-17-05832-000,CEDAR PARK APTS,377 NW Bascom Norris Dr,Lake City,Florida,32055,Columbia,Rental Assistance/HUD,72,72,72,-,x,-,-,-,Family,Ready for Occupancy,1967,1968,For-Profit,2032,30.20424424,-82.64229934,110202,4,-,-,24,48,-
1982,-,800003926,-,1654210010R,BEACHWOOD APARTMENTS,2901 BEACHWOOD BLVD,Jacksonville,Florida,32246,Duval,Rental Assistance/HUD,148,111,111,-,x,-,-,-,Family,Ready for Occupancy,1972,1972,For-Profit,2020,30.29293207,-81.51428275,14312,1,not avail.,not avail.,not avail.,not avail.,not avail.
671,-,800003970,-,0524860000R,CAMPUS TOWERS,1850 Kings Rd,Jacksonville,Florida,32209,Duval,Rental Assistance/HUD;Section 202 Direct Loan,192,175,175,-,x,-,-,-,Elderly,Ready for Occupancy,1967,1968,Non-Profit,2035,30.34480161,-81.68783681,2802,1,not avail.,not avail.,not avail.,not avail.,not avail.
1995,-,800003976,-,1090170500R,CAROLINE ARMS APARTMENTS,6457 FT CAROLINE RD,Jacksonville,Florida,32211,Duval,Rental Assistance/HUD;Section 207/223(f),204,161,161,-,x,-,-,-,Family,Ready for Occupancy,1970,1970,For-Profit,2032,30.36837191,-81.59131528,14702,1,not avail.,not avail.,not avail.,not avail.,not avail.
2146,-,800003957,-,0739890100R,CATHEDRAL COURT,201 E Ashley St,Jacksonville,Florida,32202,Duval,Rental Assistance/HUD;Section 202 Direct Loan,16,16,16,-,x,-,-,-,Persons with Disabilities,Ready for Occupancy,1980,1980,Non-Profit,2035,30.33037244,-81.65318803,1000,3,-,14,2,-,-
2051,2743,800003987,-,0740700000R,CATHEDRAL TERRACE,701 NORTH OCEAN ST,Jacksonville,Florida,32202,Duval,Extremely Low Income;Housing Credits 4%;Rental Assistance/HUD;SAIL,240,240,224,x,x,-,-,-,Elderly;Family;Link,Ready for Occupancy,1972,1974,Non-Profit,2066,30.33148565,-81.65470147,1000,3,not avail.,not avail.,not avail.,not avail.,not avail.
2023,1521,800003958,-,0739890000R,CATHEDRAL TOWERS,601 N Newnan St,Jacksonville,Florida,32202,Duval,Housing Credits 9%;Rental Assistance/HUD;Section 202 Direct Loan,203,186,161,x,x,-,-,-,Elderly;Family,Ready for Occupancy,1966,1968,Non-Profit,2068,30.33048059,-81.65373284,1000,3,not avail.,not avail.,not avail.,not avail.,not avail.
1980,-,800003959,-,0738760000R,CATHEDRAL TOWNHOUSE,501 N Ocean St,Jacksonville,Florida,32202,Duval,Rental Assistance/HUD;Section 202 Direct Loan,179,115,115,-,x,-,-,-,Elderly,Ready for Occupancy,1968,1970,Non-Profit,2034,30.32995548,-81.65518581,17200,1,not avail.,not avail.,not avail.,not avail.,not avail.
2030,-,800004008,-,0288270000R,CLEVELAND ARMS APARTMENTS,5020 CLEVELAND RD,Jacksonville,Florida,32209,Duval,Refi Section 221(d)(4) MR;Rental Assistance/HUD,200,200,200,-,x,-,-,-,Family,Ready for Occupancy,1969,1969,For-Profit,2031,30.36459806,-81.70791586,11600,2,-,-,72,128,-
1057,-,800003971,-,1451780010R,DESERT WIND APTS.,233 SAHARA CT,Jacksonville,Florida,32216,Duval,Rental Assistance/HUD,152,152,152,-,x,-,-,-,Family,Ready for Occupancy,1972,1972,For-Profit,2025,30.310708,-81.564005,15802,1,-,12,72,60,8
1636,-,800004056,-,1029190000R,DUVAL ASSOC. FOR RESIDENTIAL CARE,2450 JAMMES RD,Jacksonville,Florida,32210,Duval,Rental Assistance/HUD;Section 202 Direct Loan,26,24,24,-,x,-,-,-,Persons with Disabilities,Ready for Occupancy,1983,1983,Non-Profit,2023,30.27394695,-81.74843249,12602,2,not avail.,not avail.,not avail.,not avail.,not avail.
1735,-,800004058,-,1204790020R,EAGLE ROCK APARTMENTS I,1600 Lansdowne Dr,Jacksonville,Florida,32211,Duval,Rental Assistance/HUD,96,46,46,-,x,-,-,-,Family,Ready for Occupancy,1991,1974,For-Profit,2017,30.33914193,-81.57403765,15001,3,not avail.,not avail.,not avail.,not avail.,not avail.
1737,-,800004060,-,1227000010R,EASTSIDE GARDEN APARTMENTS,1212 E FIRST ST,Jacksonville,Florida,32206,Duval,Refi Section 221(d)(3) MR;Rental Assistance/HUD,48,46,46,-,x,-,-,-,Family,Ready for Occupancy,1970,1970,For-Profit,2031,30.33606134,-81.63910077,17400,1,not avail.,not avail.,not avail.,not avail.,not avail.
1741,-,800004057,-,1151350000R,EASTSIDE TERRACE APARTMENTS,1230 E 7TH ST,Jacksonville,Florida,32206,Duval,Refi Section 221(d)(3) MR;Rental Assistance/HUD,48,48,48,-,x,-,-,-,Family,Ready for Occupancy,1969,1970,For-Profit,2031,30.34330545,-81.63849456,17400,3,-,9,9,12,18
2033,-,800004072,-,0662310000R,EUREKA GARDEN APARTMENTS,1214 LABELLE ST,Jacksonville,Florida,32205,Duval,Rental Assistance/HUD,396,396,396,-,x,-,-,-,Family,Ready for Occupancy,1967,1971,For-Profit,2017,30.30222498,-81.7333958,12200,2,-,99,193,104,-
1179,-,800004080,-,1540660300R,FANNIE E. TAYLOR (APTS) HOME FOR THE AGED,6701 CHESTER AVENUE,Jacksonville,Florida,32217,Duval,Rental Assistance/HUD;Section 202 Direct Loan,150,150,150,-,x,-,-,-,Elderly,Ready for Occupancy,1980,1980,Non-Profit,2025,30.25539962,-81.6204121,16601,3,-,150,-,-,-
1909,-,800004079,-,1271080000R,FANNIE E. TAYLOR HOME FOR THE AGED,3937 SPRING PARK RD,Jacksonville,Florida,32207,Duval,Rental Assistance/HUD;Section 236,204,96,96,-,x,-,-,-,Elderly,Ready for Occupancy,1972,1971,Non-Profit,2018,30.28689346,-81.62080224,16100,3,not avail.,not avail.,not avail.,not avail.,not avail.
1996,-,800004094,-,0616670010R,FLORIDA CHRISTIAN HOME,1115 EDGEWOOD AVE S,Jacksonville,Florida,32205,Duval,Rental Assistance/HUD;Section 231,180,160,160,-,x,-,-,-,Elderly,Ready for Occupancy,1972,1973,Non-Profit,2030,30.31030308,-81.71512648,2501,3,not avail.,not avail.,not avail.,not avail.,not avail.
1782,2827,800004138,-,0419340000R,HAMPTON VILLA  APARTMENTS,3190 W EDGEWOOD AVE,Jacksonville,Florida,32209,Duval,Extremely Low Income;Rental Assistance/HUD;SAIL;State Bonds,60,60,60,x,x,-,-,-,Family;Link,Ready for Occupancy,1970,1969,For-Profit,2068,30.37212369,-81.71859474,11600,2,-,60,-,-,-
514,-,800004149,-,1271110000R,HAROLD HOUSE APARTMENTS,3650 RING  LANE,Jacksonville,Florida,32207,Duval,Rental Assistance/HUD,80,80,80,-,x,-,-,-,Family,Ready for Occupancy,1971,1971,For-Profit,2017,30.28814207,-81.61599759,16100,3,-,-,24,56,-
260,366,800004169,-,0226620000R,HILLTOP VILLAGE APARTMENTS,1646 W 45TH ST,Jacksonville,Florida,32208,Duval,Housing Credits 4%;Housing Credits 9%;Rental Assistance/HUD;SAIL;Section 542;State Bonds,200,200,200,x,x,-,-,-,Family,Ready for Occupancy,1970,1967,For-Profit,2061,30.3736893,-81.68391886,11500,1,-,-,72,128,-
2031,-,800004173,-,0767570000R,HOLLY BROOK HOMES,104 KING ST,Jacksonville,Florida,32204,Duval,Rental Assistance/HUD,182,182,182,-,x,-,-,-,Family,Ready for Occupancy,1972,1971,Non-Profit,2032,30.33041314,-81.69825709,2600,2,-,20,60,30,72
661,-,800004185,-,1281800100R,HURLEY MANOR,3333 University Blvd N,Jacksonville,Florida,32277,Duval,Rental Assistance/HUD;Section 207/223(f),154,152,152,-,x,-,-,-,Elderly,Ready for Occupancy,1984,1984,Non-Profit,2035,30.35931641,-81.60441998,14800,3,not avail.,not avail.,not avail.,not avail.,not avail.
1819,-,800004187,-,0495180000R,HURON-SOPHIA APTS,2800 SOPHIA ST,Jacksonville,Florida,32254,Duval,Rental Assistance/HUD,72,72,72,-,x,-,-,-,Family,Ready for Occupancy,1973,1971,For-Profit,2032,30.33800049,-81.71503222,2702,3,-,40,32,-,-
1548,-,800004194,-,1260710020R,JACKSONVILLE TOWNHOUSE,3465 PHILLIPS HWY,Jacksonville,Florida,32207,Duval,Rental Assistance/HUD,250,250,250,-,x,-,-,-,Elderly,Ready for Occupancy,1978,1978,For-Profit,2031,30.29245361,-81.63501695,600,2,-,250,-,-,-
1545,-,800004242,-,0560530000R,LELAND APARTMENTS LIMITED,406 LELAND ST,Jacksonville,Florida,32254,Duval,Rental Assistance/HUD,10,10,10,-,x,-,-,-,Family,Ready for Occupancy,1974,1931,Non-Profit,2031,30.32383354,-81.69876178,2600,3,2,4,4,-,-
2004,-,800004268,-,1489400120R,MANDARIN TRACE APARTMENTS,3960 OLD SUNBEAM RD,Jacksonville,Florida,32257,Duval,Refi Section 221(d)(4) MR;Rental Assistance/HUD,120,119,119,-,x,-,-,-,Family,Ready for Occupancy,1983,1983,For-Profit,2031,30.20418591,-81.61263914,16722,3,not avail.,not avail.,not avail.,not avail.,not avail.
1605,-,800004273,-,0725770000R,MARKET STREET APARTMENTS,1205 MARKET ST,Jacksonville,Florida,32202,Duval,Rental Assistance/HUD,17,17,17,-,x,-,-,-,Family,Ready for Occupancy,1973,1921,For-Profit,2021,30.33779277,-81.65139686,1100,1,4,4,6,3,-
663,-,800004293,-,0441450000R,MONACO ARMS APARTMENTS I,10525 MONACO DR,Jacksonville,Florida,32218,Duval,Rental Assistance/HUD,100,86,86,-,x,-,-,-,Family,Ready for Occupancy,1971,1973,For-Profit,2025,30.4255614,-81.65892505,10402,2,not avail.,not avail.,not avail.,not avail.,not avail.
1710,-,800004258,-,0441450000R,MONACO ARMS APARTMENTS II,10415 MONACO DR,Jacksonville,Florida,32218,Duval,Rental Assistance/HUD,56,39,39,-,x,-,-,-,Family,Ready for Occupancy,1973,1973,For-Profit,2025,30.42543599,-81.65893141,10402,2,not avail.,not avail.,not avail.,not avail.,not avail.
617,-,800004294,-,0855870000R,MONCRIEF VILLAGE,1650  MONCRIEF VILLAGE North,Jacksonville,Florida,32209,Duval,Rental Assistance/HUD,94,94,94,-,x,-,-,-,Family,Ready for Occupancy,1974,1957,For-Profit,2031,30.36786453,-81.6841082,2901,1,-,10,84,-,-
2095,-,800004297,-,0379720000R,MORRIS MANOR,9050 NORFOLK BLVD,Jacksonville,Florida,32208,Duval,Rental Assistance/HUD;Section 207/223(f),168,168,168,-,x,-,-,-,Elderly,Ready for Occupancy,1980,1980,Non-Profit,2017,30.40403114,-81.7222657,10800,2,24,144,-,-,-
283,527,800004300,-,1527840005R,MT. CARMEL GARDENS,5846 MT CARMEL TER,Jacksonville,Florida,32216,Duval,Elderly Housing Community Loan;Extremely Low Income;Rental Assistance/HUD;SAIL;Section 207/223(f);State HOME,207,207,127,x,x,-,-,-,Elderly,Ready for Occupancy,1972,1972,Non-Profit,2066,30.27427239,-81.60338526,16000,2,94,112,1,-,-
1994,-,800004312,-,0269430000R,NEW OUTLOOK,7911 TALLAHASSEE AVE,Jacksonville,Florida,32208,Duval,Rental Assistance/HUD;Section 202 Direct Loan,17,16,16,-,x,-,-,-,Persons with Disabilities,Ready for Occupancy,1995,1995,Non-Profit,2035,30.39087459,-81.68210222,11200,2,not avail.,not avail.,not avail.,not avail.,not avail.
1172,-,800004315,-,0441540020R,NEW OUTLOOK II,1241 Bluehill Dr N,Jacksonville,Florida,32218,Duval,Rental Assistance/HUD;Section 811 Capital Advance,25,24,24,-,x,-,-,-,Persons with Disabilities,Ready for Occupancy,1998,1998,Non-Profit,2038,30.43467138,-81.66754706,10304,3,not avail.,not avail.,not avail.,not avail.,not avail.
1920,1452,800004316,-,0092770100R,NORMANDY APARTMENTS,8441 Helen Terrace,Jacksonville,Florida,32210,Duval,Rental Assistance/HUD;State HOME,100,100,99,x,x,-,-,-,Family,Ready for Occupancy,1974,1974,Non-Profit,2056,30.28624159,-81.79145719,12702,2,-,40,44,16,-
1993,-,800004325,-,0680350000R,OAK TREE APARTMENTS,1701 LAKE SHORE BLVD,Jacksonville,Florida,32210,Duval,Rental Assistance/HUD;Section 207/223(f),162,162,162,-,x,-,-,-,Family,Ready for Occupancy,1980,1980,For-Profit,2031,30.28772749,-81.73697105,12200,3,-,32,66,64,-
1543,2528,800004329,-,1225680000R,OAKLAND TERRACE,887 FRANKLIN ST,Jacksonville,Florida,32206,Duval,Housing Credits 9%;Refi Section 221(d)(3) MR;Rental Assistance/HUD,60,60,60,x,x,-,-,-,Family;Link,Ready for Occupancy,1973,1973,For-Profit,2064,30.333511,-81.639321,17400,1,-,-,20,30,10
1075,569,800004323,-,1434780000R,OAKWOOD VILLA APARTMENTS,8201 Kona Ave,Jacksonville,Florida,32211,Duval,Rental Assistance/HUD;SAIL,200,200,200,x,x,-,-,-,Family,Ready for Occupancy,1973,1972,For-Profit,2051,30.32388859,-81.57172193,15502,2,-,32,136,32,-
2080,-,800004399,-,1489400000R,PSI MANDARIN CENTER,3933 PRITMORE RD,Jacksonville,Florida,32257,Duval,Rental Assistance/HUD;Section 207/223(f),80,79,79,-,x,-,-,-,Elderly,Ready for Occupancy,1983,1983,Non-Profit,2033,30.20249808,-81.61310698,16722,3,not avail.,not avail.,not avail.,not avail.,not avail.
1912,-,800004411,-,0903550000R,RIVERSIDE PARK  APARTMENTS,750 OAK ST,Jacksonville,Florida,32204,Duval,Rental Assistance/HUD;Section 207/223(f),90,90,90,-,x,-,-,-,Elderly,Ready for Occupancy,1982,1982,Non-Profit,2023,30.31703477,-81.67900477,17100,1,-,90,-,-,-
1984,-,800004412,-,0902980000R,RIVERSIDE PRESBYTERIAN APARTMENTS,1045 OAK ST,Jacksonville,Florida,32204,Duval,Rental Assistance/HUD,205,100,100,-,x,-,-,-,Elderly,Ready for Occupancy,1970,1970,Non-Profit,2019,30.313931,-81.67956992,17100,1,not avail.,not avail.,not avail.,not avail.,not avail.
1849,-,800004413,-,0908740000R,RIVERSIDE PRESBYTERIAN HOUSE,2020 PARK STREET,Jacksonville,Florida,32204,Duval,Rental Assistance/HUD;Section 202 Direct Loan,192,76,76,-,x,-,-,-,Elderly,Ready for Occupancy,1971,1971,Non-Profit,2024,30.31325613,-81.68189772,17100,1,not avail.,not avail.,not avail.,not avail.,not avail.
1526,-,800037723,-,0452980000R,ROOSEVELT GARDENS,702 N Lincoln Ct,Jacksonville,Florida,32209,Duval,Refi Section 221(d)(4) MR;Rental Assistance/HUD,206,205,205,-,x,-,-,-,Family,Ready for Occupancy,1986,1949,For-Profit,2031,30.35270624,-81.66495179,1500,5,not avail.,not avail.,not avail.,not avail.,not avail.
174,-,800004066,-,1266460000R,SABLE PALMS APARTMENTS,2150 EMERSON RD,Jacksonville,Florida,32207,Duval,Rental Assistance/HUD,200,200,200,-,x,-,-,-,Family,Ready for Occupancy,1971,1969,Limited Dividend,2020,30.28349196,-81.64124964,16300,2,-,12,100,80,8
555,-,800004440,-,1451780020R,SILVER CREEK APARTMENTS,300 SILVER CREEK TRACE,Jacksonville,Florida,32216,Duval,Rental Assistance/HUD,152,145,145,-,x,-,-,-,Family,Ready for Occupancy,1972,1972,For-Profit,2024,30.30996733,-81.56563379,15802,1,not avail.,not avail.,not avail.,not avail.,not avail.
1540,-,800004445,-,1268520000R,SOUTHSIDE APTS,2301 Westmont St,Jacksonville,Florida,32207,Duval,Rental Assistance/HUD,74,74,74,-,x,-,-,-,Family,Ready for Occupancy,1973,1957,For-Profit,2031,30.29930334,-81.63968313,600,2,-,-,74,-,-
1671,-,800004448,-,0542950000R,SPRINGFIELD RESIDENTIAL ONE,1407 JEFFERSON ST,Jacksonville,Florida,32209,Duval,Rental Assistance/HUD,51,51,51,-,x,-,-,-,Family,Ready for Occupancy,1974,1952,For-Profit,2017,30.34208258,-81.6628028,1600,1,-,22,16,13,-
1750,2804,800004465,-,0739860000R,STEVENSDUVAL APARTMENTS,601 N Ocean St,Jacksonville,Florida,32202,Duval,Extremely Low Income;Housing Credits 4%;Rental Assistance/HUD;SAIL;State Bonds,52,52,52,x,x,-,-,-,Elderly;Family;Link,Ready for Occupancy,1981,1907,For-Profit,2065,30.33075046,-81.65506374,1000,3,8,40,4,-,-
1890,-,800004473,-,0616670000R,SUNDALE MANOR,3505 CORBY ST,Jacksonville,Florida,32205,Duval,Rental Assistance/HUD;Section 207/223(f),90,90,90,-,x,-,-,-,Elderly,Ready for Occupancy,1982,1983,Non-Profit,2032,30.31056484,-81.7141719,2501,3,-,85,5,-,-
2211,-,800065482,-,1500480500R,San Jose I,3630 GALICIA ROAD,Jacksonville,Florida,32217,Duval,Rental Assistance/HUD;Section 202 Capital Advance,50,50,50,-,x,-,-,-,Elderly,Ready for Occupancy,1999,1999,Non-Profit,2039,30.25018734,-81.62406469,16604,1,-,50,-,-,-
2214,-,800065488,-,1500481000R,San Jose II,3622 Galicia Rd,Jacksonville,Florida,32217,Duval,Rental Assistance/HUD;Section 202 Capital Advance,49,49,49,-,x,-,-,-,Elderly,Ready for Occupancy,1999,1999,Non-Profit,2040,30.25015381,-81.62522077,16604,1,-,49,-,-,-
3070,-,800112344,-,1029169000R,THE ENCLAVES APARTMENTS,2250 JAMMES ROAD,Jacksonville,Florida,32210,Duval,Rental Assistance/HUD;Section 811 Capital Advance,18,17,17,-,x,-,-,-,Persons with Disabilities,Ready for Occupancy,2002,2003,Non-Profit,2042,30.2754328,-81.74879668,12602,2,not avail.,not avail.,not avail.,not avail.,not avail.
3094,1426,800004513,-,1031780000R,TIMUQUANA PARK APARTMENTS,5615 SEABOARD AVE,Jacksonville,Florida,32244,Duval,Housing Credits 4%;Local Bonds;Rental Assistance/HUD,100,100,100,x,x,-,-,x,Family,Ready for Occupancy,1981,1981,For-Profit,2056,30.24522854,-81.72918884,13402,1,-,28,56,16,-
2025,1544,800003920,-,0807370000R,TOWERS OF JACKSONVILLE,1400 LEBARON AVENUE,Jacksonville,Florida,32207,Duval,Housing Credits 4%;Rental Assistance/HUD;Section 236;State Bonds,194,185,151,x,x,-,-,-,Elderly,Ready for Occupancy,1972,1972,For-Profit,2046,30.31190557,-81.66389202,800,2,not avail.,not avail.,not avail.,not avail.,not avail.
2018,-,800004517,-,0982781100R,TREETOP APARTMENTS,6355 MORSE  AVENUE,Jacksonville,Florida,32244,Duval,Rental Assistance/HUD,172,171,171,-,x,-,-,-,Family,Ready for Occupancy,1979,1979,For-Profit,2030,30.22727735,-81.74574701,13521,1,not avail.,not avail.,not avail.,not avail.,not avail.
1537,2557,800004527,-,0548210020R,UNIVERSITY PLAZA,719 VENUS MARS COURT,Jacksonville,Florida,32209,Duval,Housing Credits 9%;Rental Assistance/HUD;Section 542,120,120,120,x,x,-,-,-,Family;Link,Ready for Occupancy,1974,1955,For-Profit,2064,30.350611,-81.665083,1500,5,-,-,120,-,-
2028,-,800037900,-,0299300000R,WASHINGTON HEIGHTS,4229 Moncrief Rd W,Jacksonville,Florida,32209,Duval,Rental Assistance/HUD,200,200,200,-,x,-,-,-,Family,Ready for Occupancy,1968,1969,For-Profit,2017,30.38943165,-81.71502133,11300,1,-,-,96,104,-
1662,-,800004570,-,0548210020R,WEBER 5B APARTMENTS,719 Venus Mars Court,Jacksonville,Florida,32209,Duval,Rental Assistance/HUD,28,28,28,-,x,-,-,-,Family,Ready for Occupancy,1981,1955,For-Profit,2031,30.350611,-81.665083,1500,5,-,-,28,-,-
1992,-,800004574,-,0138520030R,WESTGATE APARTMENTS,5202 LA VENTURA DR E,Jacksonville,Florida,32210,Duval,Rental Assistance/HUD,168,167,167,-,x,-,-,-,Family,Ready for Occupancy,1980,1980,For-Profit,2020,30.250327,-81.768363,12800,4,not avail.,not avail.,not avail.,not avail.,not avail.
1745,-,800004581,-,0124190000R,WILSON WEST APARTMENTS,7855 Wilson Blvd,Jacksonville,Florida,32210,Duval,Refi Section 221(d)(4) MR;Rental Assistance/HUD,50,50,50,-,x,-,-,-,Family,Ready for Occupancy,1983,1983,For-Profit,2033,30.27127745,-81.77876467,12703,2,-,15,-,35,-
177,-,800004021,-,1775560030R,PABLO HAMLET,1600 SHETTER AVE,Jacksonville Beach,Florida,32250,Duval,Rental Assistance/HUD;Section 207/223(f),104,104,104,-,x,-,-,-,Elderly,Ready for Occupancy,1980,1980,Non-Profit,2035,30.285612,-81.408759,14204,3,-,94,10,-,-
925,-,800004347,-,1756040000R,PABLO TOWERS,115 S 3RD ST,Jacksonville Beach,Florida,32250,Duval,Rental Assistance/HUD,199,168,168,-,x,-,-,-,Elderly,Ready for Occupancy,1972,1973,Non-Profit,2036,30.28699607,-81.39083686,14202,1,not avail.,not avail.,not avail.,not avail.,not avail.
705,-,800003960,-,065N304440000001,CENTURY WOODS APARTMENTS,20 W Highway 4,Century,Florida,32535,Escambia,Rental Assistance/HUD;Section 515,36,36,36,-,x,-,x,-,Family,Ready for Occupancy,1984,1984,For-Profit,2034,30.97125259,-87.26815746,4000,4,-,-,24,12,-
7020,-,800219384,-,091S294006000000,AHEPA 296,3835 Creighton Rd,Pensacola,Florida,32504,Escambia,Rental Assistance/HUD;Section 202 Capital Advance,50,50,50,-,x,-,-,-,Elderly,Ready for Occupancy,2008,2008,Non-Profit,2048,30.49711806,-87.17232266,1104,4,-,50,-,-,-
1779,-,800003995,-,372S311201002001,CERNY VILLAGE APARTMENTS,5227 CERNY RD,Pensacola,Florida,32526,Escambia,Rental Assistance/HUD,60,60,60,-,x,-,-,-,Family,Ready for Occupancy,1980,1980,Non-Profit,2016,30.44824411,-87.31865515,3306,2,-,16,28,16,-
446,-,800004016,-,301S307902001016,COLLEGE TRACE APTS,813 BLOODWORTH LN,Pensacola,Florida,32504,Escambia,Refi Section 221(d)(4) MR;Rental Assistance/HUD,112,111,111,-,x,-,-,-,Elderly,Ready for Occupancy,1983,1983,For-Profit,2017,30.4986237,-87.21950236,1202,2,not avail.,not avail.,not avail.,not avail.,not avail.
1843,-,800004078,-,122S311403000001,FAIRFIELD VILLAGE,601 N FAIRFIELD DR,Pensacola,Florida,32506,Escambia,Rental Assistance/HUD,72,72,72,-,x,-,-,-,Elderly,Ready for Occupancy,1981,1981,Non-Profit,2016,30.41848119,-87.31836333,2704,1,-,33,31,8,-
2039,-,800004566,-,502S304590000001,FOREST CREEK APARTMENTS,34 Patton Dr,Pensacola,Florida,32507,Escambia,Rental Assistance/HUD,200,200,200,-,x,-,-,-,Family,Ready for Occupancy,1981,1977,For-Profit,2030,30.39501172,-87.28221604,2703,1,-,16,120,64,-
1999,-,800004146,-,242S311101004001,HARBOUR PLACE APARTMENTS,9742 HARBOUR PL,Pensacola,Florida,32506,Escambia,Refi Section 221(d)(4) MR;Rental Assistance/HUD,68,68,68,-,x,-,-,-,Family,Ready for Occupancy,1983,1983,For-Profit,2034,30.40035505,-87.35360368,2701,1,-,20,48,-,-
1584,-,800004158,-,172S301000001020,HERNANDEZ HOUSE,2002 N. 'H' Street,Pensacola,Florida,32501,Escambia,Rental Assistance/HUD;Section 202 Direct Loan,6,6,6,-,x,-,-,-,Persons with Disabilities,Ready for Occupancy,1981,1975,Non-Profit,2021,30.43226226,-87.23327763,1800,1,-,6,-,-,-
1588,-,800004233,-,172S301000002033,LAKEVIEW PLACE,1435 W JORDAN ST,Pensacola,Florida,32501,Escambia,Rental Assistance/HUD;Section 202 Direct Loan,8,8,8,-,x,-,-,-,Persons with Disabilities,Ready for Occupancy,1992,1991,Non-Profit,2032,30.43351427,-87.23550422,1800,1,1,7,-,-,-
1635,-,800004236,-,172S301000001031,LAKEVIEW VILLA,1620 W. HERNANDEZ STREET,Pensacola,Florida,32501,Escambia,Rental Assistance/HUD;Section 202 Direct Loan,20,20,20,-,x,-,-,-,Elderly,Ready for Occupancy,1992,1992,Non-Profit,2032,30.43323239,-87.23787229,1800,1,-,20,-,-,-
2024,-,800004331,-,092S300800000009,OAKWOOD TERRACE I,700 WEST TRUMAN AVENUE,Pensacola,Florida,32505,Escambia,Rental Assistance/HUD,300,300,300,-,x,-,-,-,Family,Ready for Occupancy,1971,1969,For-Profit,2031,30.45192169,-87.2525366,1700,1,-,20,152,128,-
668,-,800004379,-,052S305003000000,PENSACOLA VILLAGE APARTMENTS,500 E FAIRFIELD DRIVE,Pensacola,Florida,32503,Escambia,Rental Assistance/HUD,200,200,200,-,x,-,-,-,Family,Ready for Occupancy,1971,1971,For-Profit,2016,30.45477028,-87.22066143,1300,2,-,12,80,108,-
1991,-,800004474,-,152S305503001001,SUNRISE APARTMENTS,4350 WEST FAIRFIELD DRIVE,Pensacola,Florida,32505,Escambia,Rental Assistance/HUD;Section 236,160,151,151,-,x,-,-,-,Family,Ready for Occupancy,1971,1971,Limited Dividend,2060,30.43590636,-87.27481138,3000,3,not avail.,not avail.,not avail.,not avail.,not avail.
1990,-,800004505,-,061S291001007001,THE MOORINGS,8491 OLD SPANISH TRAIL ROAD,Pensacola,Florida,32514,Escambia,Rental Assistance/HUD;Section 236,200,187,187,-,x,-,-,-,Family,Ready for Occupancy,1973,1973,Limited Dividend,2060,30.51562518,-87.17324502,3506,3,not avail.,not avail.,not avail.,not avail.,not avail.
702,-,800004378,-,172S301000004016,WESTMINSTER VILLAGE I and II,1700 NORTH 'L' STREET,Pensacola,Florida,32501,Escambia,Rental Assistance/HUD;Section 207/223(f),198,198,198,-,x,-,-,-,Elderly,Ready for Occupancy,1979,1981,Non-Profit,2045,30.43131324,-87.23433892,1800,1,25,173,-,-,-
714,-,800065478,-,302S301001007052,WESTMINSTER VILLAGE III,1900 W MORENO ST,Pensacola,Florida,32501,Escambia,Rental Assistance/HUD;Section 202 Capital Advance,52,52,52,-,x,-,-,-,Elderly,Ready for Occupancy,1998,1999,Non-Profit,2039,30.42873967,-87.23944367,400,3,-,52,-,-,-
6907,-,800219668,-,302S301001001023,WESTMINSTER VILLAGE IV,1651 N K St,Pensacola,Florida,32501,Escambia,Rental Assistance/HUD;Section 202 Capital Advance,53,53,53,-,x,-,-,-,Elderly,Ready for Occupancy,2007,1980,Non-Profit,2047,30.42755178,-87.23694484,400,3,-,53,-,-,-
7172,-,800225870,-,302S301001001024,WESTMINSTER VILLAGE V,1951 West Blount Street,Pensacola,Florida,32501,Escambia,Rental Assistance/HUD;Section 202 Capital Advance,53,53,53,-,x,-,-,-,Elderly,Ready for Occupancy,2011,1980,Non-Profit,2050,30.4273105,-87.2359925,400,3,-,53,-,-,-
1744,-,800004575,-,342S300061001002,WESTWOOD HOMES,4400 Westover Street,Pensacola,Florida,32506,Escambia,Refi Section 221(d)(3) MR;Rental Assistance/HUD,52,50,50,-,x,-,-,-,Persons with Disabilities,Ready for Occupancy,1983,1983,Non-Profit,2033,30.43126742,-87.2777679,2900,2,not avail.,not avail.,not avail.,not avail.,not avail.
1886,-,800004093,-,2-03-3N-6W-0000-00332-0100,FLINT GARDEN APARTMENTS,424 Line St,Chattahoochee,Florida,32324,Gadsden,Rental Assistance/HUD;Section 207/223(f),88,88,88,-,x,-,-,-,Family,Ready for Occupancy,1977,1977,For-Profit,2031,30.68110812,-84.83372147,20400,4,-,-,24,64,-
541,-,800004152,-,2-34-3N-2W-0000-00441-0100,HAVANA HEIGHTS APARTMENTS,111 W 16TH ST,Havana,Florida,32333,Gadsden,Rental Assistance/HUD,60,60,60,-,x,-,-,-,Family,Ready for Occupancy,1973,1973,For-Profit,2019,30.61266345,-84.41623354,20102,1,-,8,16,24,12
780,-,800004410,-,2-34-3N-2W-0000-00430-0100,RIVERSIDE APARTMENTS,110 W 16TH AVE,Havana,Florida,32333,Gadsden,Rental Assistance/HUD;Section 515,50,50,50,-,x,-,x,-,Family,Ready for Occupancy,1980,1980,Limited Dividend,2030,30.61162235,-84.41783933,20102,1,-,-,17,33,-
1946,1965,800004108,-,3-07-2N-3W-0000-00323-0100,GADSDEN ARMS APARTMENTS,427 S STEWART ST,Quincy,Florida,32351,Gadsden,Housing Credits 9%;Rental Assistance/HUD,100,100,100,x,x,-,-,-,Family,Ready for Occupancy,1971,1974,For-Profit,2059,30.58225279,-84.57993149,20702,1,-,-,28,72,-
2048,-,800004367,-,3-11-2N-4W-0000-00324-0400,PARKVIEW GARDEN APARTMENTS,500 SOUTH ATLANTA STREET,Quincy,Florida,32351,Gadsden,Rental Assistance/HUD;Section 515,70,70,70,-,x,-,x,-,Family,Ready for Occupancy,1979,1979,For-Profit,2016,30.58092148,-84.61189332,20701,2,-,24,22,24,-
1699,-,800004368,-,3-11-2N-4W-0000-00324-0500,PARKVIEW MANOR,520 S. ATLANTA ST,Quincy,Florida,32351,Gadsden,Rental Assistance/HUD;Section 514/516,36,36,36,-,x,-,x,-,Family;Farmworker,Ready for Occupancy,1982,1982,For-Profit,2032,30.57954547,-84.61200096,20701,2,-,-,18,18,-
1410,-,800004518,-,16-10-15-0000-0001-0030,TRENTON APARTMENTS,718 NE 7TH PLACE,Trenton,Florida,32693,Gilchrist,Rental Assistance/HUD;Section 515,36,36,36,-,x,-,x,-,Family,Ready for Occupancy,1982,1982,For-Profit,2032,29.618917,-82.810006,950204,3,-,8,20,8,-
1538,-,800004568,-,09-34-25-0000-09060-0000,WAUCHULA GARDENS,1020 Makowski Rd,Wauchula,Florida,33873,Hardee,Rental Assistance/HUD,55,55,55,-,x,-,-,-,Family,Ready for Occupancy,1972,1973,For-Profit,2020,27.53546119,-81.81116394,970400,3,-,16,23,16,-
701,-,800004148,-,1344321A000002.0100,HARLEM GARDENS APARTMENTS,700 Harlem Tenants Circle,Clewiston,Florida,33440,Hendry,Refi Section 207 PMM;Rental Assistance/HUD,126,126,126,-,x,-,-,-,Family,Ready for Occupancy,1984,1978,Non-Profit,2028,26.73493125,-80.94703123,200,4,-,12,51,51,12
7282,-,800235850,-,3 34 43 16 A00 0006.1100,SWEETWATER PLACE APTS.,1016 W. Ventura Avenue,Clewiston,Florida,33440,Hendry,Rental Assistance/HUD;Section 811 Capital Advance,14,14,14,-,x,-,-,-,Persons with Disabilities,Ready for Occupancy,2014,not avail.,Non-Profit,2053,26.75175344,-80.94934351,100,4,-,11,3,-,-
7073,-,800224909,-,2294307A000007.0000,PALMETTO RANCH 1,1101 James Singleton Place,LaBelle,Florida,33935,Hendry,Rental Assistance/HUD;Section 811 Capital Advance,14,14,14,-,x,-,-,-,Persons with Disabilities,Ready for Occupancy,2009,2009,Non-Profit,2049,26.75364023,-81.45471322,402,2,-,9,5,-,-
7158,-,800226004,-,1304434A000002.0000,PALMETTO RANCH II,1025-1036 James Singleton Place,LaBelle,Florida,33935,Hendry,Rental Assistance/HUD;Section 811 Capital Advance,14,14,14,-,x,-,-,-,Persons with Disabilities,Ready for Occupancy,2011,not avail.,Non-Profit,2051,26.61620016,-81.32219107,300,3,-,9,5,-,-
897,650,800211422,-,R3232317516009750070,PORTILLO APARTMENTS,3474 Portillo Road,SPRING HILL,Florida,32084,Hernando,Housing Credits 9%;Rental Assistance/HUD;Section 811 Capital Advance;State HOME,24,24,14,x,x,-,-,-,Elderly;Persons with Disabilities,Ready for Occupancy,1997,1998,Non-Profit,2048,28.4856565,-82.54301818,41006,2,-,18,6,-,-
2212,-,800067302,-,R3232317517011320130,SPRING HILL APARTMENTS,4200 Portillo Rd,SPRING HILL,Florida,34608,Hernando,Rental Assistance/HUD;Section 811 Capital Advance,15,14,14,-,x,-,-,-,Persons with Disabilities,Ready for Occupancy,1998,1998,Non-Profit,2038,28.49248309,-82.54714047,41105,1,not avail.,not avail.,not avail.,not avail.,not avail.
414,-,800004407,-,A23332801003900000,RIDGEDALE APARTMENTS,723 FAIRVIEW TERRACE,Avon Park,Florida,33825,Highlands,Refi Section 221(d)(4) MR;Rental Assistance/HUD,36,36,36,-,x,-,-,-,Family,Ready for Occupancy,1983,1983,Non-Profit,2028,27.58882472,-81.49208909,960300,1,-,4,14,14,4
1642,-,800004577,-,A22332801003100070,WHISPERING PINES APARTMENTS,709 S Summit Ave,Avon Park,Florida,33825,Highlands,Rental Assistance/HUD,26,26,26,-,x,-,-,-,Elderly,Ready for Occupancy,1978,1978,For-Profit,2020,27.58878644,-81.50882606,960300,5,-,26,-,-,-
1846,-,800004077,-,S32342909000400020,FAIR HAVENS VILLAGE,3015 SPINKS RD,Sebring,Florida,33870,Highlands,Rental Assistance/HUD;Section 207/223(f),80,79,79,-,x,-,-,-,Elderly,Ready for Occupancy,1985,1985,Non-Profit,2030,27.48049214,-81.43691853,961100,2,not avail.,not avail.,not avail.,not avail.,not avail.
6642,-,800217810,-,S33342903000000030,HIGHLANDS CO VOA,1427 Queen Palm Ave,Sebring,Florida,33870,Highlands,Rental Assistance/HUD;Section 811 Capital Advance,12,11,11,-,x,-,-,-,Persons with Disabilities,Ready for Occupancy,2005,2005,Non-Profit,2045,27.48454815,-81.42820282,961100,3,not avail.,not avail.,not avail.,not avail.,not avail.
6506,-,800211367,-,202928ZZZ000002675501U,JONTILLY PLACE,1402 Jontilly Place,BRANDON,Florida,33511,Hillsborough,Rental Assistance/HUD;Section 811 Capital Advance,18,18,18,-,x,-,-,-,Persons with Disabilities,Ready for Occupancy,2002,2004,Non-Profit,2022,27.935668,-82.305867,13307,1,-,18,-,-,-
1929,-,800004471,-,202926ZZZ000002610300U,SUMMIT RIDGE APARTMENTS,"982 SUMMIT RIDGE, DR.",BRANDON,Florida,33511,Hillsborough,Rental Assistance/HUD,40,40,40,-,x,-,-,-,Family,Ready for Occupancy,1983,1983,For-Profit,2020,27.936271,-82.269399,13311,3,-,-,24,16,-
6623,-,800222766,-,2029232EO000000000440U,APOSTLES VILLAGE,525 E Sadie St,Brandon,Florida,33510,Hillsborough,Rental Assistance/HUD;Section 202 Capital Advance,55,55,55,-,x,-,-,-,Elderly,Ready for Occupancy,2009,2009,Non-Profit,2048,27.94101292,-82.27811469,12303,3,-,55,-,-,-
2220,-,800112351,-,2229055A9000037000140P,BREWER'S BRIDGEWAY,1001 W. Alexander Street,Plant City,Florida,33566,Hillsborough,Rental Assistance/HUD;Section 811 Capital Advance,18,18,18,-,x,-,-,-,Persons with Disabilities,Ready for Occupancy,2001,2001,Non-Profit,2016,27.98855514,-82.13055888,13003,1,-,13,5,-,-
1714,-,800004389,-,2228285BP000009000010P,PLANT CITY LIVING CENTER,405 E. Damon Street,Plant City,Florida,33563,Hillsborough,Rental Assistance/HUD;Section 202 Capital Advance,42,42,42,-,x,-,-,-,Elderly,Ready for Occupancy,1996,1997,Non-Profit,2037,28.02015109,-82.12115621,12800,2,-,42,-,-,-
1847,-,800004390,-,2228295D9000019000020P,PLANT CITY TOWERS,103 W MAHONEY ST,Plant City,Florida,33566,Hillsborough,Rental Assistance/HUD;Section 202 Direct Loan,75,74,74,-,x,-,-,-,Elderly,Ready for Occupancy,1983,1983,Non-Profit,2024,28.0172529,-82.12414886,12702,2,not avail.,not avail.,not avail.,not avail.,not avail.
7149,-,800224029,-,222829ZZZ000006093300P,SAN CLEMENTE VILLAS,1104 N. Alexander Street,Plant City,Florida,33563,Hillsborough,Rental Assistance/HUD;Section 202 Capital Advance,68,68,68,-,x,-,-,-,Elderly,Ready for Occupancy,2009,1977,Non-Profit,2016,28.024513,-82.135889,12702,3,-,68,-,-,-
1922,-,800003891,-,19281844Z000000000003A,ACORN TRACE APARTMENTS,11115 N NEBRASKA AVE,Tampa,Florida,33612,Hillsborough,Rental Assistance/HUD;Section 207/223(f),100,100,100,-,x,-,-,-,Elderly,Ready for Occupancy,1982,1982,Non-Profit,2022,28.04970617,-82.4500279,201,1,-,100,-,-,-
2026,2556,800003951,-,1829023HB000000I00001A,AQUA APARTMENTS,4505 N ROME AVE,Tampa,Florida,33603,Hillsborough,Housing Credits 9%;Rental Assistance/HUD;Section 236,197,197,185,x,x,-,-,-,Elderly;Family;Link,Ready for Occupancy,1970,1971,For-Profit,2064,27.98261404,-82.47569532,2400,3,not avail.,not avail.,not avail.,not avail.,not avail.
6510,-,800217508,-,192926663000001547001U,BLESSED SACRAMENT MANOR,6915 12 Avenue South,Tampa,Florida,33619,Hillsborough,Rental Assistance/HUD;Section 202 Capital Advance,68,68,68,-,x,-,-,-,Elderly,Ready for Occupancy,2003,2004,Non-Profit,2044,27.93624497,-82.37923818,13504,1,-,68,-,-,-
1664,-,800003980,-,1829134XN000004000040A,CASA DE PALMA,302 E PALM AVE,Tampa,Florida,33602,Hillsborough,Rental Assistance/HUD;Section 202 Direct Loan,24,24,24,-,x,-,-,-,Elderly,Ready for Occupancy,1981,1981,Non-Profit,2031,27.96255925,-82.45731784,4100,2,-,24,-,-,-
659,2593,800003992,-,1829134XA000005000000A,CENTRAL COURT APARTMENTS,2510  CENTRAL AVE,Tampa,Florida,33602,Hillsborough,Housing Credits 9%;Rental Assistance/HUD;Section 207/223(f),68,68,68,x,x,-,-,-,Family;Link,Ready for Occupancy,1970,1971,For-Profit,2064,27.96626821,-82.45568383,4100,1,-,14,40,14,-
2027,2828,800004019,-,182914ZZZ000005907900A,COLUMBUS COURT APARTMENTS,2802 Statelite Ct,Tampa,Florida,33607,Hillsborough,Extremely Low Income;Housing Credits 4%;Rental Assistance/HUD;SAIL;State Bonds,160,160,160,x,x,-,-,-,Family;Link,Ready for Occupancy,1971,1970,For-Profit,2067,27.9659024,-82.4758324,4300,1,-,28,102,30,-
474,1916,800004028,-,192806ZZZ000001268900U,COUNTRY OAKS APARTMENTS,14316 Dake Ln,Tampa,Florida,33613,Hillsborough,Housing Credits 9%;Rental Assistance/HUD;Section 542,148,148,146,x,x,-,-,-,Family,Ready for Occupancy,1983,1983,For-Profit,2059,28.076929,-82.442197,10817,1,not avail.,not avail.,not avail.,not avail.,not avail.
718,-,800004069,-,192832ZZZ000005671900A,EPIPHANY ARMS,2508 E Hanna Ave,Tampa,Florida,33610,Hillsborough,Rental Assistance/HUD;Section 202 Capital Advance,76,76,76,-,x,-,-,-,Elderly,Ready for Occupancy,1999,1999,Non-Profit,2016,28.00422689,-82.43217777,1001,1,-,76,-,-,-
1708,-,800004106,-,1830083XJ000005000010A,FREEDOM VILLAGE II,5002 S BRIDGE ST,Tampa,Florida,33611,Hillsborough,Rental Assistance/HUD;Section 202 Direct Loan,40,40,40,-,x,-,-,-,Persons with Disabilities,Ready for Occupancy,1989,1989,Non-Profit,2030,27.89214383,-82.52917948,7102,1,-,20,20,-,-
2221,-,800067312,-,182821ZZZ000000944000U,GRACE MANOR,8402 N HURBERT AVE,Tampa,Florida,33614,Hillsborough,Rental Assistance/HUD;Section 811 Capital Advance,19,19,19,-,x,-,-,-,Persons with Disabilities,Ready for Occupancy,1999,1999,Non-Profit,2017,28.02639473,-82.51637605,11803,5,-,19,-,-,-
1679,-,800004141,-,19291850N000050000002A,HACIENDA DE YBOR,1615 HACIENDA CT,Tampa,Florida,33605,Hillsborough,Rental Assistance/HUD,99,97,97,-,x,-,-,-,Elderly,Ready for Occupancy,1971,1980,For-Profit,2034,27.963578,-82.442268,3900,1,not avail.,not avail.,not avail.,not avail.,not avail.
1894,-,800004140,-,19291850N000050000002A,HACIENDA VILLAS,1501 E Palm Ave,Tampa,Florida,33605,Hillsborough,Rental Assistance/HUD;Section 202 Direct Loan,98,98,98,-,x,-,-,-,Elderly,Ready for Occupancy,1980,1980,Non-Profit,2041,27.96299247,-82.44240077,3900,1,12,86,-,-,-
1547,-,800004184,-,1828263FC000000000010A,HUNTER OAKS APARTMENTS,8314 N ROME AVE,Tampa,Florida,33604,Hillsborough,Rental Assistance/HUD;Section 811 Capital Advance,24,24,24,-,x,-,-,-,Persons with Disabilities,Ready for Occupancy,1998,1998,Non-Profit,2017,28.02439787,-82.47636683,1300,1,-,24,-,-,-
1959,2693,800004192,-,192908ZZZ000005891800A,JACKSON HEIGHTS,3700 Lowry Ct,Tampa,Florida,33610,Hillsborough,Housing Credits 9%;Rental Assistance/HUD,111,111,111,x,x,-,-,-,Family;Link,Ready for Occupancy,1972,1971,For-Profit,2066,27.979393,-82.423922,3400,2,-,38,51,22,-
2060,-,800004191,-,1829223MUH00000000010A,JEWISH CENTER TOWERS,3001 W DE LEON ST,Tampa,Florida,33609,Hillsborough,Rental Assistance/HUD,199,186,186,-,x,-,-,-,Elderly,Ready for Occupancy,1975,1975,For-Profit,2035,27.93927463,-82.49156615,5700,3,not avail.,not avail.,not avail.,not avail.,not avail.
1883,-,800004208,-,1829103J0000012000020A,KING'S ARMS,4125 N. LINCOLN AVE,Tampa,Florida,33607,Hillsborough,Rental Assistance/HUD;Section 207/223(f),84,84,84,-,x,-,-,-,Elderly,Ready for Occupancy,1986,1985,Non-Profit,2026,27.97709851,-82.49516337,2700,1,24,60,-,-,-
2140,-,800004209,-,1829154PT000002000000A,KING'S MANOR APARTMENTS,2946 W COLUMBUS DR,Tampa,Florida,33607,Hillsborough,Rental Assistance/HUD;Section 207/223(f),99,99,99,-,x,-,-,-,Elderly,Ready for Occupancy,1983,1983,Non-Profit,2025,27.96620544,-82.49075943,4500,2,-,99,-,-,-
1845,-,800004269,-,183005ZZZ000005523400A,MANHATTAN PLACE,4033 S MANHATTAN AVE,Tampa,Florida,33611,Hillsborough,Rental Assistance/HUD;Section 207/223(f),74,74,74,-,x,-,-,-,Elderly,Ready for Occupancy,1984,1984,Non-Profit,2025,27.90460894,-82.5192064,6501,1,20,54,-,-,-
1880,-,800004489,-,19282143U000000000301A,MAR PLAZA APARTMENTS,4817 E Temple Heights Rd,Tampa,Florida,33617,Hillsborough,Rental Assistance/HUD,82,82,82,-,x,-,-,-,Elderly,Ready for Occupancy,1978,1978,For-Profit,2030,28.03609945,-82.40417643,102,4,53,29,-,-,-
2047,-,800004275,-,192816ZZZ000005580500A,MARY WALKER APARTMENTS,4912 E LINEBAUGH AVE,Tampa,Florida,33617,Hillsborough,Rental Assistance/HUD;Section 202 Direct Loan,85,85,85,-,x,-,-,-,Elderly,Ready for Occupancy,1982,1982,For-Profit,2032,28.04031032,-82.40306512,102,3,-,85,-,-,-
2216,-,800067317,-,182903ZZZ000005444700A,MATTHEWS CORNER,4540 N Armenia Ave,Tampa,Florida,33603,Hillsborough,Rental Assistance/HUD;Section 811 Capital Advance,19,18,18,-,x,-,-,-,Persons with Disabilities,Ready for Occupancy,2000,2000,Non-Profit,2040,27.98516818,-82.4860222,2500,4,not avail.,not avail.,not avail.,not avail.,not avail.
2236,-,800004302,-,192815ZZZ000005568200A,MYRTLE OAKS APARTMENTS,5108 Mission Hills Dr,Tampa,Florida,33617,Hillsborough,Rental Assistance/HUD;Section 202 Capital Advance,100,99,99,-,x,-,-,-,Elderly,Ready for Occupancy,1997,1998,Non-Profit,2038,28.04031053,-82.39827614,102,3,not avail.,not avail.,not avail.,not avail.,not avail.
578,-,800004307,-,192807ZZZ000001286300U,NEW HORIZONS APARTMENTS,12718 N 19TH ST,Tampa,Florida,33612,Hillsborough,Rental Assistance/HUD;Section 207/223(f),24,24,24,-,x,-,-,-,Persons with Disabilities,Ready for Occupancy,1984,1983,Non-Profit,2044,28.06308887,-82.43960568,10816,3,-,16,8,-,-
592,-,800004318,-,192805ZZZ000001262000U,NORTHSIDE PROPERTIES I,14011 N 22ND STREET,Tampa,Florida,33613,Hillsborough,Rental Assistance/HUD;Section 207/223(f),78,78,78,-,x,-,-,-,Persons with Disabilities,Ready for Occupancy,1984,1984,Non-Profit,2029,28.07479389,-82.43373032,10808,1,-,78,-,-,-
1715,-,800004328,-,1829144PP000001000040A,OAKHURST SQUARE I APARTMENTS,1120 N BOULEVARD,Tampa,Florida,33607,Hillsborough,Rental Assistance/HUD,120,45,45,-,x,-,-,-,Family,Ready for Occupancy,1970,1970,For-Profit,2047,27.95299412,-82.46897183,5000,2,not avail.,not avail.,not avail.,not avail.,not avail.
1700,-,800004327,-,1829144PP000001000040A,OAKHURST SQUARE II APARTMENTS,1120 NORTH BLVD,Tampa,Florida,33607,Hillsborough,Rental Assistance/HUD;Section 236,80,39,39,-,x,-,-,-,Family,Ready for Occupancy,1974,1970,For-Profit,2047,27.95299151,-82.46897687,5000,2,not avail.,not avail.,not avail.,not avail.,not avail.
1703,-,800004349,-,1829134XO000006000010A,PALM AVENUE BAPTIST TOWERS,215 E PALM AVE,Tampa,Florida,33602,Hillsborough,Rental Assistance/HUD;Section 236,199,168,168,-,x,-,-,-,Elderly,Ready for Occupancy,1974,1974,Non-Profit,2026,27.96181852,-82.45858467,4100,2,not avail.,not avail.,not avail.,not avail.,not avail.
1879,-,800004372,-,183004ZZZ000005522100A,PATRICIAN ARMS,4516 S MANHATTAN AVE,Tampa,Florida,33611,Hillsborough,Rental Assistance/HUD;Section 202 Capital Advance,82,82,82,-,x,-,-,-,Elderly,Ready for Occupancy,1995,1995,Non-Profit,2035,27.89950905,-82.51769559,6600,4,-,82,-,-,-
7219,-,800225873,-,183004ZZZ000005522400A,PATRICIAN ARMS II,4518 S. Manhattan Avenue,Tampa,Florida,33611,Hillsborough,Rental Assistance/HUD;Section 202 Capital Advance,68,68,68,-,x,-,-,-,Elderly,Ready for Occupancy,2012,not avail.,Non-Profit,2051,27.89999009,-82.5177595,6600,4,-,68,-,-,-
1778,-,800004395,-,183005ZZZ000005523300A,PRESBYTERIAN VILLAS OF TAMPA,4011 S MANHATTAN  AVE,Tampa,Florida,33611,Hillsborough,Rental Assistance/HUD,210,56,56,-,x,-,-,-,Elderly,Ready for Occupancy,1971,1971,Non-Profit,2033,27.90565347,-82.51918297,6501,1,not avail.,not avail.,not avail.,not avail.,not avail.
6920,-,800221219,-,182903ZZZ000005435101A,SAN LORENZO TERRACE,4815 N. MacDill Avenue,Tampa,Florida,33614,Hillsborough,Rental Assistance/HUD;Section 202 Capital Advance,80,80,80,-,x,-,-,-,Elderly,Ready for Occupancy,2007,2008,Non-Profit,2047,27.99047606,-82.49176678,2500,3,-,80,-,-,-
7151,-,800224834,-,182903ZZZ000005435101A,SAN LORENZO TERRACE II,4820 N. Gomez Avenue,Tampa,Florida,33614,Hillsborough,Rental Assistance/HUD;Section 202 Capital Advance,68,68,68,-,x,-,-,-,Elderly,Ready for Occupancy,2009,2008,Non-Profit,2049,27.99053058,-82.49151098,2500,3,-,68,-,-,-
1917,2461,800234287,-,192833ZZZ000005697300A,SILVER OAKS APARTMENTS,5711 Troy Ct,Tampa,Florida,33610,Hillsborough,Exchange;Housing Credits 9%;Rental Assistance/HUD,200,200,199,x,x,-,-,-,Elderly;Family;Link,Ready for Occupancy,1971,not avail.,For-Profit,2062,27.99836642,-82.41021945,1002,4,-,33,127,40,-
1885,-,800004491,-,192818ZZZ000005600800A,Silvertree Senior Apartments,11113 N Nebraska Ave,Tampa,Florida,33612,Hillsborough,Rental Assistance/HUD;Section 202 Direct Loan,85,84,84,-,x,-,-,-,Elderly,Ready for Occupancy,1983,1984,For-Profit,2024,28.04927881,-82.45000656,201,1,not avail.,not avail.,not avail.,not avail.,not avail.
1672,-,800004490,-,19282143U000000000301A,TAMPA HEIGHTS APARTMENTS PHASE II,4821 E Temple Heights Rd,Tampa,Florida,33617,Hillsborough,Rental Assistance/HUD,36,36,36,-,x,-,-,-,Family,Ready for Occupancy,1983,1978,For-Profit,2018,28.03610122,-82.40417456,102,4,-,12,24,-,-
2017,-,800004492,-,19291851R000000000170A,TAMPA PARK APARTMENTS I,1417 TAMPA PARK PLAZA,Tampa,Florida,33605,Hillsborough,Rental Assistance/HUD,202,172,172,-,x,-,-,-,Family,Ready for Occupancy,1969,1969,Non-Profit,2017,27.957386,-82.450783,3900,2,not avail.,not avail.,not avail.,not avail.,not avail.
1669,-,800004493,-,19291851R000000000170A,TAMPA PARK APARTMENTS II,1417 Tampa Park Plaza St,Tampa,Florida,33605,Hillsborough,Rental Assistance/HUD,168,34,34,-,x,-,-,-,not avail.,Ready for Occupancy,1970,1969,Non-Profit,2017,27.95693547,-82.45075684,3900,2,not avail.,not avail.,not avail.,not avail.,not avail.
1743,-,800004495,-,1829134YI000041000000A,TAMPA PRESBYTERIAN VILLAGE,721 GREEN ST,Tampa,Florida,33607,Hillsborough,Rental Assistance/HUD;Section 236,140,48,48,-,x,-,-,-,Family,Ready for Occupancy,1972,1972,Non-Profit,2033,27.95699328,-82.46582352,4300,1,not avail.,not avail.,not avail.,not avail.,not avail.
711,-,800004561,-,1928071GNC00000000030U,VILLAGE AT UNIVERSITY SQUARE APARTMENTS,11725 N 17TH ST,Tampa,Florida,33612,Hillsborough,Refi Section 221(d)(4) MR;Rental Assistance/HUD,122,122,122,-,x,-,-,-,Family,Ready for Occupancy,1982,1982,For-Profit,2029,28.05668793,-82.44015137,10816,1,-,34,48,40,-
7064,2444,800004284,-,1829134Z0000000000011A,VISTA 400,400 E HARRISON ST,Tampa,Florida,33602,Hillsborough,Housing Credits 4%;Rental Assistance/HUD;State Bonds;State HOME,200,200,168,x,x,-,-,-,Elderly;Family,Ready for Occupancy,1970,1972,For-Profit,2032,27.95364414,-82.45906038,5101,1,81,119,-,-,-
171,-,800004166,-,1829163JN000001000070A,VOA LIVING CENTER II,3610 BEACH ST,Tampa,Florida,33607,Hillsborough,Rental Assistance/HUD;Section 811 Capital Advance,9,8,8,-,x,-,-,-,Persons with Disabilities,Ready for Occupancy,1998,1998,Non-Profit,2018,27.96287748,-82.50266532,4600,3,not avail.,not avail.,not avail.,not avail.,not avail.
1712,-,800004314,-,2032102XJ0000000005A1U,NEUMAUMA HOMES PHASE I,5701 BASSA ST,WIMAUMA,Florida,33598,Hillsborough,Rental Assistance/HUD;Section 515,42,42,42,-,x,-,x,-,Family,Ready for Occupancy,1980,1981,For-Profit,2027,27.71877101,-82.30110211,13913,2,-,8,20,12,2
713,-,800067306,-,3.34E+19,ARC OF INDIAN RIVER CO,1005 22nd Ave,Vero Beach,Florida,32960,Indian River,Rental Assistance/HUD;Section 811 Capital Advance,8,8,8,-,x,-,-,-,Persons with Disabilities,Ready for Occupancy,1999,1971,Non-Profit,2039,27.62016182,-80.40854901,50602,2,8,-,-,-,-
558,-,800003943,-,3.34E+19,GARDENIA GARDENS,655 14th St,Vero Beach,Florida,32960,Indian River,Rental Assistance/HUD;Section 202 Capital Advance,80,79,79,-,x,-,-,-,Elderly,Ready for Occupancy,1998,1998,Non-Profit,2038,27.62603048,-80.38625662,50401,1,not avail.,not avail.,not avail.,not avail.,not avail.
511,-,800004338,-,3.24E+19,ORANGE BLOSSOM VILLAGE,3300 12TH CT,Vero Beach,Florida,32960,Indian River,Rental Assistance/HUD;Section 202 Direct Loan,80,80,80,-,x,-,-,-,Elderly,Ready for Occupancy,1991,1990,Non-Profit,2031,27.65194,-80.397804,50301,1,-,80,-,-,-
130,2150,800004130,-,34-7N-13-0172-0000-0420,GRACELAND MANOR APARTMENTS,5445 BROWN ST,Graceville,Florida,32440,Jackson,Exchange;Housing Credits 9%;Rental Assistance/HUD;Section 515;State HOME;Tax Credit Assistance Program,50,50,50,x,x,-,x,-,Family;Link,Ready for Occupancy,1980,1980,For-Profit,2061,30.96475042,-85.51670721,210300,5,-,12,30,8,-
622,-,800003999,-,03-4N-10-0346-0000-0502,CHIPOLA APARTMENTS,4401 Constitution Ln,Marianna,Florida,32448,Jackson,Rental Assistance/HUD,48,48,48,-,x,-,-,-,Elderly,Ready for Occupancy,1980,1982,Non-Profit,2035,30.77324464,-85.22862614,210600,4,6,42,-,-,-
1748,2175,800004025,-,05-4N-10-0000-1130-0011,COTTONDALE VILLAGE APARTMENTS I,4052 OLD COTTONDALE RD,Marianna,Florida,32446,Jackson,Exchange;Housing Credits 9%;Rental Assistance/HUD;Section 515;State HOME;Tax Credit Assistance Program,50,50,50,x,x,-,x,-,Family;Link,Ready for Occupancy,1979,1982,For-Profit,2061,30.77873141,-85.2579631,210600,2,-,16,24,10,-
1666,2175,800004026,-,05-4N-10-0000-1130-0011,COTTONDALE VILLAGE APARTMENTS II,4052 OLD COTTONDALE RD,Marianna,Florida,32448,Jackson,Exchange;Housing Credits 9%;Rental Assistance/HUD;Section 515;State HOME;Tax Credit Assistance Program,32,32,32,x,x,-,x,-,Family;Link,Ready for Occupancy,1979,1982,For-Profit,2061,30.77873731,-85.25797009,210600,2,-,4,20,8,-
1677,-,800004119,-,05-4N-10-0000-0300-0020,GIBB  MARIANNA VILLAGE,2933 MILTON AVE,Marianna,Florida,32310,Jackson,Rental Assistance/HUD;Section 202 Direct Loan,40,39,39,-,x,-,-,-,Persons with Disabilities,Ready for Occupancy,1994,1994,Non-Profit,2034,30.77894441,-85.24838054,210600,5,not avail.,not avail.,not avail.,not avail.,not avail.
1919,2684,800004271,-,33-5N-10-0000-0580-0010,THREE RIVERS APARTMENTS,3070 Carters Mill Rd,Marianna,Florida,32446,Jackson,Extremely Low Income;Housing Credits 4%;Rental Assistance/HUD;SAIL;State Bonds,100,100,100,x,x,-,-,-,Family;Link,Ready for Occupancy,1972,1970,For-Profit,2047,30.78816598,-85.24280624,210500,2,-,-,36,64,-
1821,-,800004196,-,29-2N-5E-0000-0630-0000,JEFFERSON ARMS APARTMENTS,1425 E CLARK AVE.,Monticello,Florida,32344,Jefferson,Rental Assistance/HUD;Section 207/223(f),75,75,75,-,x,-,-,-,Family,Ready for Occupancy,1972,1971,For-Profit,2030,30.541369,-83.855539,250101,3,-,-,22,53,-
706,-,800004222,-,1.31E+18,LAFAYETTE APARTMENTS,176 SE Land Ave,Mayo,Florida,32066,Lafayette,Rental Assistance/HUD;Section 515,36,36,36,-,x,-,x,-,Family,Ready for Occupancy,1982,1982,Limited Dividend,2032,30.051933,-83.168177,960200,1,-,8,20,8,-
1740,-,800004502,-,1.52E+17,FRANKLIN HOUSE,2400 KURT STREET,Eustis,Florida,32726,Lake,Rental Assistance/HUD;Section 207/223(f),46,46,46,-,x,-,-,-,Elderly,Ready for Occupancy,1989,1989,Non-Profit,2029,28.83271875,-81.69283449,30209,1,12,34,-,-,-
2006,5,800004248,-,1.12E+17,LITTLE OAKS APARTMENTS,300 WEST ATWATER AVENUE,Eustis,Florida,32726,Lake,Exchange;Housing Credits 9%;Rental Assistance/HUD;Section 207/223(f);State HOME;Tax Credit Assistance Program,68,68,68,x,x,-,-,-,Family;Link,Ready for Occupancy,1981,1981,For-Profit,2061,28.84069024,-81.69014911,30209,2,-,20,36,12,-
1599,-,800003974,-,2.62E+17,CARE DIVERSIFIED OF LAKE COUNTY,1312 SUMTER ST,Leesburg,Florida,34748,Lake,Rental Assistance/HUD;Section 202 Direct Loan,12,12,12,-,x,-,-,-,Persons with Disabilities,Ready for Occupancy,1991,1991,Non-Profit,2032,28.80579791,-81.88613942,30602,3,-,12,-,-,-
1596,-,800004227,-,1.52E+17,"LAKE REGION HOMES, INC.",2016 TALLY RD,Leesburg,Florida,34748,Lake,Rental Assistance/HUD;Section 202 Direct Loan,11,10,10,-,x,-,-,-,Persons with Disabilities,Ready for Occupancy,1990,1991,Non-Profit,2030,28.83624414,-81.89391967,30504,2,not avail.,not avail.,not avail.,not avail.,not avail.
556,-,800004249,-,1.52E+17,LITTLE TURTLE APARTMENTS,1350 PAMELA ST #25,Leesburg,Florida,34748,Lake,Rental Assistance/HUD,38,38,38,-,x,-,-,-,Family,Ready for Occupancy,1981,1981,For-Profit,2031,28.83037643,-81.89104075,30504,2,-,12,16,6,4
1951,-,800004277,-,2.22E+17,TURTLE OAKS APARTMENTS,2311 GRIFFIN RD,Leesburg,Florida,34748,Lake,Rental Assistance/HUD,101,101,101,-,x,-,-,-,Family,Ready for Occupancy,1968,1969,For-Profit,2019,28.82788199,-81.90117166,30504,1,-,24,53,24,-
670,-,800004330,-,2.92E+17,OAKWOOD APARTMENTS,550 LINCOLN AVE,Mount Dora,Florida,32757,Lake,Rental Assistance/HUD;Section 207/223(f),72,72,72,-,x,-,-,-,Family,Ready for Occupancy,1973,1973,For-Profit,2016,28.80734361,-81.63969572,30914,1,-,18,36,18,-
1707,-,800003977,-,2.82E+17,CAROLINE COURT APARTMENTS,1000 E Caroline St,Tavares,Florida,32778,Lake,Rental Assistance/HUD,40,40,40,-,x,-,-,-,Elderly,Ready for Occupancy,1979,1979,For-Profit,2035,28.80507059,-81.7174821,30804,1,-,13,16,11,-
3116,-,800214871,-,124523C3003170260,CORONADO PLACE,4642 Coronado Pkwy,Cape Coral,Florida,33904,Lee,Rental Assistance/HUD;Section 811 Capital Advance,10,10,10,-,x,-,-,-,Persons with Disabilities,Ready for Occupancy,2003,2003,Non-Profit,2043,26.56485271,-81.95848692,10602,3,-,8,2,-,-
2215,-,800066819,-,104523C3033740340,LAUREL OAKS,4626 SKYLINE BLVD,Cape Coral,Florida,33914,Lee,Rental Assistance/HUD;Section 811 Capital Advance,12,12,12,-,x,-,-,-,Persons with Disabilities,Ready for Occupancy,1998,1998,Non-Profit,2038,26.56496259,-81.9909985,10407,1,-,10,2,-,-
2218,-,800112347,-,014523C4008570220,SANTA BARBARA VILLAGE,3618 SANTA BARBARA BLVD,Cape Coral,Florida,33914,Lee,Rental Assistance/HUD;Section 811 Capital Advance,12,12,12,-,x,-,-,-,Persons with Disabilities,Ready for Occupancy,2000,1987,Non-Profit,2040,26.5844557,-81.97341846,10412,1,-,10,2,-,-
715,-,800066832,-,254424P402800006D,BROADWAY PLACE,2129 EARL RD,Fort Myers,Florida,33901,Lee,Rental Assistance/HUD;Section 811 Capital Advance,12,12,12,-,x,-,-,-,Persons with Disabilities,Ready for Occupancy,1999,1999,Non-Profit,2039,26.61316968,-81.86833106,1101,2,-,10,2,-,-
656,-,800003945,-,084425P3000690000,BROOKSIDE VILLAGE,1011 MARSH AVE,Fort Myers,Florida,33905,Lee,Refi Section 221(d)(4) MR;Rental Assistance/HUD,50,50,50,-,x,-,-,-,Family,Ready for Occupancy,1981,1982,For-Profit,2031,26.65913131,-81.82747758,302,3,-,12,26,12,-
631,-,800004039,-,084425P1010050080,CYPRESS COURTS,3604 SEMINOLE AVE,Fort Myers,Florida,33916,Lee,Refi Section 221(d)(4) MR;Rental Assistance/HUD,68,68,68,-,x,-,-,-,Family,Ready for Occupancy,1981,1981,For-Profit,2033,26.66297634,-81.83976627,301,3,-,20,40,8,-
7198,2548,800240924,FL047000012,184425P3035190010,EAST POINTE PLACE,3501 Dale St,Fort Myers,Florida,33916,Lee,Housing Credits 9%;Public Housing;Rental Assistance/HUD,86,86,74,x,x,x,-,-,Elderly;Family;Link,Ready for Occupancy,1970,not avail.,For-Profit,not avail.,26.64377837,-81.84311036,502,3,not avail.,not avail.,not avail.,not avail.,not avail.
7280,-,800235856,-,3.44E+16,JEAN DEVEREAUX APARTMENTS,431 Monterey Street North,Fort Myers,Florida,33903,Lee,Rental Assistance/HUD;Section 811 Capital Advance,14,14,14,-,x,-,-,-,Persons with Disabilities,Ready for Occupancy,2014,not avail.,Non-Profit,2054,26.68945807,-81.89585277,20800,1,-,11,3,-,-
625,-,800004200,-,184425P4007040010,JONES WALKER PALM GARDENS APTS.,2909 BLOUNT ST,Fort Myers,Florida,33916,Lee,Rental Assistance/HUD,80,75,75,-,x,-,-,-,Family,Ready for Occupancy,1969,1970,For-Profit,2032,26.64364342,-81.85381402,502,1,not avail.,not avail.,not avail.,not avail.,not avail.
669,2561,800004424,-,174425P4003000100,LANDINGS AT EAST POINTE,3701 Sabal Palm Boulevard,Fort Myers,Florida,33916,Lee,Housing Credits 9%;Rental Assistance/HUD,126,126,126,x,x,-,-,-,Family;Link,Ready for Occupancy,1968,1969,For-Profit,2064,26.64351767,-81.83923157,502,4,-,20,52,36,18
630,-,800004240,-,364424P200200008A,LEE MENTAL HEALTH CENTER,3661 EVANS AVE,Fort Myers,Florida,33901,Lee,Rental Assistance/HUD;Section 202 Direct Loan,20,20,20,-,x,-,-,-,Persons with Disabilities,Ready for Occupancy,1993,1998,Non-Profit,2017,26.60823245,-81.8585154,1102,3,-,20,-,-,-
3093,-,800212817,-,174425P2021050160,OHIO PLACE,95 Diana Ave,Fort Myers,Florida,33905,Lee,Rental Assistance/HUD;Section 811 Capital Advance,15,15,15,-,x,-,-,-,Persons with Disabilities,Ready for Occupancy,2003,2003,Non-Profit,2016,26.65348726,-81.82557857,503,3,-,12,3,-,-
665,2794,800004351,-,174425P3000640010,PALM CITY GARDEN APARTMENTS,1625 MARSH AVE,Fort Myers,Florida,33905,Lee,Elderly Housing Community Loan;Predevelopment Loan Program;Rental Assistance/HUD;Section 207/223(f),100,100,100,x,x,-,-,-,Elderly;Family,Ready for Occupancy,1986,1987,Non-Profit,2032,26.64791705,-81.82706431,504,3,25,75,-,-,-
719,-,800004304,-,364424P1000040060,SANDPIPER RUN,2075 COLLIER AVE,Fort Myers,Florida,33901,Lee,Rental Assistance/HUD;Section 202 Capital Advance,60,59,59,-,x,-,-,-,Elderly,Ready for Occupancy,1998,1998,Non-Profit,2038,26.60917308,-81.87052904,1102,1,not avail.,not avail.,not avail.,not avail.,not avail.
7159,-,800231947,-,2.25E+16,ST JOHN XXIII VILLAS,13060 Palomino Lane,Fort Myers,Florida,33912,Lee,Rental Assistance/HUD;Section 202 Capital Advance,68,68,68,-,x,-,-,-,Elderly,Ready for Occupancy,2012,2005,Non-Profit,2016,26.55274743,-81.80611365,40117,1,-,68,-,-,-
635,-,800004422,-,254424P20050F0010,SUNRISE TOWERS,2825 Central AVE,Fort Myers,Florida,33901,Lee,Rental Assistance/HUD,92,42,42,-,x,-,-,-,Family,Ready for Occupancy,1982,1982,For-Profit,2022,26.62552925,-81.86367232,1101,1,not avail.,not avail.,not avail.,not avail.,not avail.
664,-,800004419,-,364424P2000100000,SUNTERRA APARTMENTS,3541 EVANS AVE,Fort Myers,Florida,33901,Lee,Rental Assistance/HUD,120,90,90,-,x,-,-,-,Family,Ready for Occupancy,1971,1973,For-Profit,2022,26.61087709,-81.85902331,1102,3,not avail.,not avail.,not avail.,not avail.,not avail.
6521,-,800214881,-,2.94E+16,VILLA VINCENTE,13031 Palm Beach Blvd,Fort Myers,Florida,33905,Lee,Rental Assistance/HUD;Section 202 Capital Advance,60,60,60,-,x,-,-,-,Elderly,Ready for Occupancy,2004,1990,Non-Profit,2044,26.70426423,-81.74360094,30201,1,-,60,-,-,-
1597,-,800004478,-,3.14E+16,SUNSHINE VILLAS,1291 BROAD ST W,LEHIGH ACRES,Florida,33936,Lee,Rental Assistance/HUD;Section 202 Direct Loan,48,10,10,-,x,-,-,-,Elderly,Ready for Occupancy,1962,1967,Non-Profit,2032,26.599773,-81.650642,40304,3,not avail.,not avail.,not avail.,not avail.,not avail.
1665,-,800004479,-,3.14E+16,SUNSHINE VILLAS ANNEX,1291 BROAD ST W,LEHIGH ACRES,Florida,33936,Lee,Rental Assistance/HUD;Section 202 Direct Loan,168,33,33,-,x,-,-,-,Elderly,Ready for Occupancy,1967,1967,Non-Profit,2017,26.599773,-81.650642,40304,3,not avail.,not avail.,not avail.,not avail.,not avail.
6630,-,800217517,-,3.14E+16,WOODWARD MANOR INC.,1301 Woodward Court,LEHIGH ACRES,Florida,33936,Lee,Rental Assistance/HUD;Section 202 Capital Advance,90,90,90,-,x,-,-,-,Elderly,Ready for Occupancy,2005,not avail.,Non-Profit,2045,26.60065486,-81.65337502,40304,3,-,90,-,-,-
7071,-,800223971,-,2.84E+16,COUNTRY COVE APARTMENTS,421 Gerald Avenue,Lehigh Acres,Florida,33936,Lee,Rental Assistance/HUD;Section 811 Capital Advance,14,14,14,-,x,-,-,-,Persons with Disabilities,Ready for Occupancy,2009,1994,Non-Profit,2017,26.61743832,-81.62951158,40203,6,-,9,5,-,-
2198,-,800112346,-,0645270400000B000,GLENDALE VILLAGE,4 Beth Stacey Blvd,Lehigh Acres,Florida,33936,Lee,Rental Assistance/HUD;Section 811 Capital Advance,14,14,14,-,x,-,-,-,Persons with Disabilities,Ready for Occupancy,2001,2001,Non-Profit,2041,26.59582383,-81.65567888,40304,2,-,12,2,-,-
6615,-,800214877,-,3.54E+16,HATTON B. ROGERS APARTMENTS,4250 Hatton B Rogers,NORTH FORT MYERS,Florida,33903,Lee,Rental Assistance/HUD;Section 202 Capital Advance,54,54,54,-,x,-,-,-,Elderly,Ready for Occupancy,2004,2005,Non-Profit,2044,26.68678182,-81.88740147,20800,6,-,54,-,-,-
1858,-,800004353,-,1.04E+16,PALM HARBOR APARTMENTS,1081 PALM AVE,NORTH FORT MYERS,Florida,33903,Lee,Rental Assistance/HUD;Section 202 Direct Loan,81,80,80,-,x,-,-,-,Elderly,Ready for Occupancy,1993,1993,Non-Profit,2033,26.66237284,-81.89329074,20600,1,not avail.,not avail.,not avail.,not avail.,not avail.
710,-,800004446,-,3.54E+16,PARK VILLAS,4200 HATTON ROGERS LANE,NORTH FORT MYERS,Florida,33917,Lee,Rental Assistance/HUD;Section 811 Capital Advance,16,15,15,-,x,-,-,-,Persons with Disabilities,Ready for Occupancy,1997,1947,Non-Profit,2017,26.684253,-81.88449,20800,6,not avail.,not avail.,not avail.,not avail.,not avail.
6912,-,800221263,-,3.54E+16,THE PINES APARTMENT,1904 Tamiami Trail N.,North Fort Myers,Florida,33903,Lee,Rental Assistance/HUD;Section 811 Capital Advance,14,14,14,-,x,-,-,-,Persons with Disabilities,Ready for Occupancy,2007,2007,Non-Profit,2047,26.68667411,-81.88371099,20501,1,-,9,5,-,-
1171,-,800065486,-,2.14E+12,BETHEL TOWERS,324 N Martin Luther King Jr Blvd,Tallahassee,Florida,32301,Leon,Rental Assistance/HUD;Section 202 Capital Advance,60,59,59,-,x,-,-,-,Elderly,Ready for Occupancy,2001,2002,Non-Profit,2041,30.44551303,-84.28601378,600,3,not avail.,not avail.,not avail.,not avail.,not avail.
1784,-,800003917,-,4.12E+12,BRIARWOOD APARTMENTS PHASE II,4495 SHELFER RD,Tallahassee,Florida,32310,Leon,Refi Section 221(d)(4) MR;Rental Assistance/HUD,63,63,63,-,x,-,-,-,Family,Ready for Occupancy,1980,1980,For-Profit,2031,30.38333084,-84.28198934,1802,1,-,12,35,16,-
1673,-,800003940,-,4.12E+12,BRIARWOOD MANOR APARTMENTS,4495 SHELFER RD,Tallahassee,Florida,32310,Leon,Rental Assistance/HUD;Section 236,92,37,37,-,x,-,-,-,Family,Ready for Occupancy,1974,1974,Limited Dividend,2034,30.38496996,-84.28194544,1802,1,not avail.,not avail.,not avail.,not avail.,not avail.
1958,-,800003979,-,2.14E+12,CASA CALDERON,800 W VIRGINIA ST,Tallahassee,Florida,32304,Leon,Rental Assistance/HUD;Section 207/223(f),112,111,111,-,x,-,-,-,Elderly,Ready for Occupancy,1981,1981,Non-Profit,2031,30.4467254,-84.29638234,600,3,not avail.,not avail.,not avail.,not avail.,not avail.
1552,-,800004116,-,2.14E+12,GEORGIA BELLE APARTMENTS,301 E Carolina St,Tallahassee,Florida,32301,Leon,Rental Assistance/HUD;Section 202 Direct Loan,150,100,100,-,x,-,-,-,Elderly,Ready for Occupancy,1969,1971,Non-Profit,2022,30.4465961,-84.2789207,200,3,not avail.,not avail.,not avail.,not avail.,not avail.
1706,-,800004118,-,4.10E+12,GIBB MABRY VILLAGE,2441 ROBERTS AVE,Tallahassee,Florida,32310,Leon,Rental Assistance/HUD;Section 202 Direct Loan,40,39,39,-,x,-,-,-,Persons with Disabilities,Ready for Occupancy,1994,1994,Non-Profit,2034,30.42771498,-84.32647742,1902,3,not avail.,not avail.,not avail.,not avail.,not avail.
1678,-,800004120,-,4.12E+12,GIBB OAKRIDGE VILLAGE,274 ROSS RD,Tallahassee,Florida,32310,Leon,Rental Assistance/HUD;Section 202 Direct Loan,40,39,39,-,x,-,-,-,Persons with Disabilities,Ready for Occupancy,1989,1988,Non-Profit,2029,30.38258684,-84.27939237,1802,1,not avail.,not avail.,not avail.,not avail.,not avail.
1947,2495,800004134,-,2.13E+12,GRIFFIN HEIGHTS APARTMENTS,1010 BASIN ST,Tallahassee,Florida,32304,Leon,Housing Credits 4%;Rental Assistance/HUD;Section 221(d)(4) MKT;State Bonds,100,100,100,x,x,-,-,-,Family,Ready for Occupancy,1973,1971,For-Profit,2042,30.45361902,-84.307512,1402,1,-,32,18,18,32
1136,-,800004487,-,212543  E0110,LAKE ELLA MANOR,1433 N ADAMS ST,Tallahassee,Florida,32303,Leon,Rental Assistance/HUD;Section 202 Direct Loan,73,72,72,-,x,-,-,-,Elderly,Ready for Occupancy,1984,1985,Non-Profit,2025,30.45881262,-84.28145304,700,2,not avail.,not avail.,not avail.,not avail.,not avail.
1915,-,800037901,-,4.11E+12,LEON ARMS,2502B Holton St,Tallahassee,Florida,32310,Leon,Rental Assistance/HUD;Section 207/223(f),100,100,100,-,x,-,-,-,Family,Ready for Occupancy,1969,1969,For-Profit,2029,30.41536019,-84.29720936,1101,1,-,-,36,64,-
1591,-,800004263,-,310745  A0030,MAGNOLIA TERRACE,509 E MAGNOLIA DR,Tallahassee,Florida,32301,Leon,Rental Assistance/HUD,108,108,108,-,x,-,-,-,Family,Ready for Occupancy,1974,1972,For-Profit,2023,30.4193755,-84.27572638,1001,1,-,25,50,25,8
6656,-,800219650,-,212635  C0010,MIRACLE VILLAGE,1208 Birmingham Street,Tallahassee,Florida,32304,Leon,Rental Assistance/HUD;Section 202 Capital Advance,45,44,44,-,x,-,-,-,Elderly,Ready for Occupancy,2007,2007,Non-Profit,2045,30.45568996,-84.29929064,1401,1,not avail.,not avail.,not avail.,not avail.,not avail.
1987,-,800004291,-,2.13E+12,MISSION HILLS APARTMENTS,2425 W MISSION RD,Tallahassee,Florida,32304,Leon,Rental Assistance/HUD;Section 207/223(f),112,112,112,-,x,-,-,-,Family,Ready for Occupancy,1980,1980,For-Profit,2033,30.45341352,-84.32969581,2104,3,-,40,60,12,-
1749,-,800004358,-,2.13E+12,PALMETTO APARTMENTS,1561 Blountstown St,Tallahassee,Florida,32304,Leon,Refi Section 221(d)(4) MR;Rental Assistance/HUD,52,52,52,-,x,-,-,-,Family,Ready for Occupancy,1981,1981,Limited Dividend,2017,30.46225444,-84.34492956,2201,1,-,8,36,8,-
170,1349,800004171,-,3.11E+12,SUNRISE PLACE APARTMENTS,2525 TEXAS ST,Tallahassee,Florida,32301,Leon,Housing Credits 4%;Rental Assistance/HUD;SAIL;State Bonds,99,99,99,x,x,-,-,-,Family,Ready for Occupancy,1973,1971,For-Profit,2064,30.41519849,-84.27437497,1001,1,-,8,31,52,8
1029,-,800004391,-,84500100,PRAIRIE OAKS APARTMENTS,1050 SW FIRST  DRIVE,Chiefland,Florida,32626,Levy,Refi Section 221(d)(4) MR;Rental Assistance/HUD,54,54,54,-,x,-,-,-,Elderly,Ready for Occupancy,1981,1981,For-Profit,2031,29.4702169,-82.85927255,970200,1,-,12,30,12,-
2122,-,800004168,-,21-1N-09-3865-002-00A,HILLTOP APARTMENTS,159 S.W. Safari St.,Madison,Florida,32340,Madison,Rental Assistance/HUD;Section 221(d)(4) MKT,72,72,72,-,x,-,-,-,Family,Ready for Occupancy,1981,1980,For-Profit,2031,30.46745326,-83.42145354,110302,2,-,20,36,16,-
576,-,800004260,-,28-1N-09-4511-004-000,MADISON HEIGHTS APARTMENTS,150 SW Bumgardner Drive,Madison,Florida,32340,Madison,Rental Assistance/HUD,76,76,76,-,x,-,-,-,Family,Ready for Occupancy,1973,1972,For-Profit,2033,30.460345,-83.423995,110302,2,-,16,24,24,12
6635,-,800212838,-,5215800059,HOLIDAY HEIGHTS VOA LIVING CENTER,4807 18th St W.,Bradenton,Florida,34207,Manatee,Rental Assistance/HUD;Section 811 Capital Advance,18,17,17,-,x,-,-,-,Persons with Disabilities,Ready for Occupancy,2004,2006,Non-Profit,2044,27.45534972,-82.57859976,310,1,not avail.,not avail.,not avail.,not avail.,not avail.
553,-,800004224,-,1379601170,LAKE EAST  I,2511 16th St. Ct. East,Bradenton,Florida,34208,Manatee,Rental Assistance/HUD;Section 515,40,40,40,-,x,-,x,-,Elderly,Ready for Occupancy,1979,1982,Limited Dividend,2035,27.47850842,-82.54369927,705,2,-,40,-,-,-
619,-,800004225,-,1379600123,LAKE EAST II,2511 16th St. Ct. East,Bradenton,Florida,34208,Manatee,Rental Assistance/HUD;Section 515,22,22,22,-,x,-,x,-,Elderly,Ready for Occupancy,1981,1981,Limited Dividend,2022,27.47747021,-82.54353868,705,2,-,22,-,-,-
583,-,800004266,-,6484400053,MANATEE COUNTY VOA LIVING CENTER,912 63RD AVENUE W.,Bradenton,Florida,34207,Manatee,Rental Assistance/HUD;Section 202 Direct Loan,11,10,10,-,x,-,-,-,Persons with Disabilities,Ready for Occupancy,1994,1985,Non-Profit,2017,27.42815475,-82.57206143,901,1,not avail.,not avail.,not avail.,not avail.,not avail.
510,-,800004392,-,6453510056,PRESBYTERIAN VILLAS OF BRADENTON,6125 14TH ST W,Bradenton,Florida,34207,Manatee,Rental Assistance/HUD;Section 236,210,93,93,-,x,-,-,-,Elderly,Ready for Occupancy,1971,1970,Non-Profit,2032,27.43185524,-82.57431659,306,1,not avail.,not avail.,not avail.,not avail.,not avail.
419,-,800004565,-,1372200004,WOODWINDS APARTMENTS,1800 WOODWINDS DR,Bradenton,Florida,34208,Manatee,Refi Section 221(d)(4) MR;Rental Assistance/HUD,96,96,96,-,x,-,-,-,Elderly,Ready for Occupancy,1983,1983,For-Profit,2031,27.4885303,-82.5453002,704,1,-,50,34,12,-
6645,-,800219353,-,2421900209,HOLY CROSS,504 West 26th Street,Palmetto,Florida,34221,Manatee,Rental Assistance/HUD;Section 202 Capital Advance,68,68,68,-,x,-,-,-,Elderly,Ready for Occupancy,2006,2006,Non-Profit,2046,27.53744064,-82.56769083,1403,3,-,68,-,-,-
7156,-,800225878,-,2421900309,HOLY CROSS MANOR II,520 W. 26th Street,Palmetto,Florida,34221,Manatee,Rental Assistance/HUD;Section 202 Capital Advance,68,68,68,-,x,-,-,-,Elderly,Ready for Occupancy,2011,2011,Non-Profit,2051,27.53756247,-82.56918022,1403,3,-,68,-,-,-
131,-,800004501,-,2580011001,THE COURTNEY,699 HABEN BLVD,Palmetto,Florida,34221,Manatee,Rental Assistance/HUD;Section 202 Capital Advance,72,71,71,-,x,-,-,-,Elderly,Ready for Occupancy,1996,1996,Non-Profit,2036,27.51733718,-82.55315369,1502,1,not avail.,not avail.,not avail.,not avail.,not avail.
2205,-,800065481,-,26879-000-32,EVANGELINE BOOTH GARDENS,2921 NE 14TH ST,Ocala,Florida,34470,Marion,Rental Assistance/HUD;Section 202 Capital Advance,65,64,64,-,x,-,-,-,Elderly,Ready for Occupancy,2000,2000,Non-Profit,2040,29.20194758,-82.09748657,1402,4,not avail.,not avail.,not avail.,not avail.,not avail.
1014,-,800004150,-,28411-000-00,HARVEY'S FELLOWSHIP HOMES,1415 NW 5th St,Ocala,Florida,34475,Marion,Refi Section 221(d)(3) MR;Rental Assistance/HUD,50,50,50,-,x,-,-,-,Family,Ready for Occupancy,1971,1972,Non-Profit,2040,29.19248535,-82.15089647,1800,1,-,50,-,-,-
1351,-,800004155,-,2372-005-004,HERITAGE OAKS OF OCALA,2820 SW 34TH ST,Ocala,Florida,34474,Marion,Rental Assistance/HUD;Section 202 Direct Loan,72,72,72,-,x,-,-,-,Elderly,Ready for Occupancy,1993,1993,Non-Profit,2016,29.15260442,-82.17094605,2401,2,-,72,-,-,-
1343,2885,800004161,-,28184-002-00,HICKORY KNOLL APARTMENTS,507 NE 22nd AVE,Ocala,Florida,34470,Marion,Extremely Low Income;Housing Credits 4%;Refi Section 221(d)(4) MR;Rental Assistance/HUD;SAIL;State Bonds,96,96,94,x,x,-,-,-,Family;Link,Ready for Occupancy,1981,1981,Limited Dividend,2068,29.19168735,-82.10730723,2002,2,not avail.,not avail.,not avail.,not avail.,not avail.
1389,-,800004333,-,25116-004-00,OCALA PLACE,2135 NW 1ST AVE,Ocala,Florida,33475,Marion,Rental Assistance/HUD,40,40,40,-,x,-,-,-,Family,Ready for Occupancy,1980,1980,For-Profit,2035,29.20962114,-82.13562587,1401,3,-,-,23,17,-
1683,615,800004365,-,2855-002-000,PARKSIDE GARDEN APARTMENTS,621 N.W. 2nd St.,Ocala,Florida,34475,Marion,Rental Assistance/HUD;State HOME,144,144,144,x,x,-,-,-,Family,Ready for Occupancy,1971,1970,Non-Profit,2058,29.18917164,-82.1429646,1800,2,-,16,116,12,-
1413,2734,800004447,-,26829-000-00,SPRING MANOR APARTMENTS,2833 NE 7TH ST,Ocala,Florida,34470,Marion,Extremely Low Income;Housing Credits 4%;Rental Assistance/HUD;SAIL;State Bonds,160,160,145,x,x,-,-,-,Family;Link,Ready for Occupancy,1973,1974,For-Profit,2065,29.19442441,-82.09780542,2002,1,not avail.,not avail.,not avail.,not avail.,not avail.
